zipcode,place,state,state_code,province,latitude,longitude
5000,Aarau,Kanton Aargau,AG,Bezirk Aarau,47.3925,8.0442
5001,Aarau 1,Kanton Aargau,AG,Bezirk Aarau,47.3888,8.0483
5004,Aarau,Kanton Aargau,AG,Bezirk Aarau,47.3925,8.0442
5017,Barmelweid,Kanton Aargau,AG,Bezirk Aarau,47.4159,7.9764
5018,Erlinsbach,Kanton Aargau,AG,Bezirk Aarau,47.4052,8.0151
5022,Rombach,Kanton Aargau,AG,Bezirk Aarau,47.4047,8.0459
5023,Biberstein,Kanton Aargau,AG,Bezirk Aarau,47.4164,8.0851
5024,Küttigen,Kanton Aargau,AG,Bezirk Aarau,47.4157,8.0477
5025,Asp,Kanton Aargau,AG,Bezirk Aarau,47.445,8.0503
5026,Densbüren,Kanton Aargau,AG,Bezirk Aarau,47.4526,8.0533
5032,Aarau Rohr,Kanton Aargau,AG,Bezirk Aarau,47.4017,8.0796
5033,Buchs AG,Kanton Aargau,AG,Bezirk Aarau,47.3936,8.0823
5034,Suhr,Kanton Aargau,AG,Bezirk Aarau,47.3717,8.0797
5035,Unterentfelden,Kanton Aargau,AG,Bezirk Aarau,47.3681,8.0502
5036,Oberentfelden,Kanton Aargau,AG,Bezirk Aarau,47.3564,8.0459
5037,Muhen,Kanton Aargau,AG,Bezirk Aarau,47.3367,8.0541
5042,Hirschthal,Kanton Aargau,AG,Bezirk Aarau,47.3187,8.0564
5722,Gränichen,Kanton Aargau,AG,Bezirk Aarau,47.3593,8.1024
5300,Turgi,Kanton Aargau,AG,Bezirk Baden,47.492,8.2541
5301,Siggenthal Station,Kanton Aargau,AG,Bezirk Baden,47.5174,8.2395
5303,Würenlingen,Kanton Aargau,AG,Bezirk Baden,47.5336,8.2567
5400,Baden,Kanton Aargau,AG,Bezirk Baden,47.4733,8.3059
5401,Baden,Kanton Aargau,AG,Bezirk Baden,47.4651,8.2896
5402,Baden,Kanton Aargau,AG,Bezirk Baden,47.4651,8.2896
5404,Baden,Kanton Aargau,AG,Bezirk Baden,47.4733,8.3059
5405,Dättwil AG,Kanton Aargau,AG,Bezirk Baden,47.4551,8.2847
5406,Rütihof,Kanton Aargau,AG,Bezirk Baden,47.44,8.2712
5408,Ennetbaden,Kanton Aargau,AG,Bezirk Baden,47.4804,8.3235
5412,Vogelsang AG,Kanton Aargau,AG,Bezirk Baden,47.4943,8.2382
5412,Gebenstorf,Kanton Aargau,AG,Bezirk Baden,47.4814,8.2395
5413,Birmenstorf AG,Kanton Aargau,AG,Bezirk Baden,47.4615,8.2482
5415,Nussbaumen AG,Kanton Aargau,AG,Bezirk Baden,47.4872,8.2917
5415,Hertenstein AG,Kanton Aargau,AG,Bezirk Baden,47.4871,8.3115
5415,Rieden AG,Kanton Aargau,AG,Bezirk Baden,47.4846,8.3018
5416,Kirchdorf AG,Kanton Aargau,AG,Bezirk Baden,47.4966,8.2754
5417,Untersiggenthal,Kanton Aargau,AG,Bezirk Baden,47.5021,8.2555
5420,Ehrendingen,Kanton Aargau,AG,Bezirk Baden,47.5025,8.3473
5423,Freienwil,Kanton Aargau,AG,Bezirk Baden,47.503,8.3277
5430,Wettingen,Kanton Aargau,AG,Bezirk Baden,47.4705,8.3164
5432,Neuenhof,Kanton Aargau,AG,Bezirk Baden,47.4526,8.3258
5436,Würenlos,Kanton Aargau,AG,Bezirk Baden,47.4421,8.3644
5442,Fislisbach,Kanton Aargau,AG,Bezirk Baden,47.439,8.2969
5443,Niederrohrdorf,Kanton Aargau,AG,Bezirk Baden,47.4235,8.3064
5444,Künten,Kanton Aargau,AG,Bezirk Baden,47.3889,8.331
5452,Oberrohrdorf,Kanton Aargau,AG,Bezirk Baden,47.4183,8.3198
5453,Remetschwil,Kanton Aargau,AG,Bezirk Baden,47.4083,8.3319
5454,Bellikon,Kanton Aargau,AG,Bezirk Baden,47.3916,8.3493
5506,Mägenwil,Kanton Aargau,AG,Bezirk Baden,47.4125,8.233
5507,Mellingen,Kanton Aargau,AG,Bezirk Baden,47.419,8.2733
5512,Wohlenschwil,Kanton Aargau,AG,Bezirk Baden,47.4137,8.2573
5608,Stetten AG,Kanton Aargau,AG,Bezirk Baden,47.4017,8.3019
8109,Kloster Fahr,Kanton Aargau,AG,Bezirk Baden,47.4473,8.3637
8956,Killwangen,Kanton Aargau,AG,Bezirk Baden,47.4318,8.3481
8957,Spreitenbach,Kanton Aargau,AG,Bezirk Baden,47.4202,8.363
8962,Bergdietikon,Kanton Aargau,AG,Bezirk Baden,47.3892,8.3862
5445,Eggenwil,Kanton Aargau,AG,Bezirk Bremgarten,47.3704,8.3395
5522,Tägerig,Kanton Aargau,AG,Bezirk Bremgarten,47.4056,8.2768
5524,Niederwil AG,Kanton Aargau,AG,Bezirk Bremgarten,47.3897,8.2914
5524,Nesselnbach,Kanton Aargau,AG,Bezirk Bremgarten,47.3897,8.2914
5525,Fischbach-Göslikon,Kanton Aargau,AG,Bezirk Bremgarten,47.3691,8.3111
5605,Dottikon,Kanton Aargau,AG,Bezirk Bremgarten,47.3844,8.2398
5607,Hägglingen,Kanton Aargau,AG,Bezirk Bremgarten,47.3885,8.2532
5610,Wohlen AG,Kanton Aargau,AG,Bezirk Bremgarten,47.3524,8.2788
5611,Anglikon,Kanton Aargau,AG,Bezirk Bremgarten,47.3664,8.2633
5612,Villmergen,Kanton Aargau,AG,Bezirk Bremgarten,47.3492,8.2458
5613,Hilfikon,Kanton Aargau,AG,Bezirk Bremgarten,47.3313,8.2424
5614,Sarmenstorf,Kanton Aargau,AG,Bezirk Bremgarten,47.3102,8.2495
5619,Uezwil,Kanton Aargau,AG,Bezirk Bremgarten,47.3169,8.2716
5619,Büttikon AG,Kanton Aargau,AG,Bezirk Bremgarten,47.3286,8.2695
5620,Bremgarten AG,Kanton Aargau,AG,Bezirk Bremgarten,47.3511,8.3421
5621,Zufikon,Kanton Aargau,AG,Bezirk Bremgarten,47.3447,8.3582
5626,Hermetschwil-Staffeln,Kanton Aargau,AG,Bezirk Bremgarten,47.3303,8.3413
8905,Islisberg,Kanton Aargau,AG,Bezirk Bremgarten,47.322,8.4414
8905,Arni AG,Kanton Aargau,AG,Bezirk Bremgarten,47.3182,8.4247
8916,Jonen,Kanton Aargau,AG,Bezirk Bremgarten,47.2974,8.3934
8917,Oberlunkhofen,Kanton Aargau,AG,Bezirk Bremgarten,47.3115,8.3914
8918,Unterlunkhofen,Kanton Aargau,AG,Bezirk Bremgarten,47.3212,8.381
8964,Rudolfstetten,Kanton Aargau,AG,Bezirk Bremgarten,47.371,8.3808
8965,Berikon,Kanton Aargau,AG,Bezirk Bremgarten,47.3514,8.3721
8966,Oberwil-Lieli,Kanton Aargau,AG,Bezirk Bremgarten,47.3338,8.3812
8967,Widen,Kanton Aargau,AG,Bezirk Bremgarten,47.3692,8.3635
5076,Bözen,Kanton Aargau,AG,Bezirk Brugg,47.4778,8.1646
5077,Elfingen,Kanton Aargau,AG,Bezirk Brugg,47.5085,8.0995
5078,Effingen,Kanton Aargau,AG,Bezirk Brugg,47.4887,8.1029
5105,Auenstein,Kanton Aargau,AG,Bezirk Brugg,47.4156,8.1345
5106,Veltheim AG,Kanton Aargau,AG,Bezirk Brugg,47.438,8.1472
5107,Schinznach Dorf,Kanton Aargau,AG,Bezirk Brugg,47.4465,8.1409
5108,Oberflachs,Kanton Aargau,AG,Bezirk Brugg,47.4402,8.1252
5112,Thalheim AG,Kanton Aargau,AG,Bezirk Brugg,47.4353,8.1003
5116,Schinznach Bad,Kanton Aargau,AG,Bezirk Brugg,47.4499,8.1683
5200,Brugg AG,Kanton Aargau,AG,Bezirk Brugg,47.481,8.2087
5201,Brugg AG,Kanton Aargau,AG,Bezirk Brugg,47.4863,8.211
5210,Windisch,Kanton Aargau,AG,Bezirk Brugg,47.479,8.2184
5212,Hausen AG,Kanton Aargau,AG,Bezirk Brugg,47.464,8.2099
5213,Villnachern,Kanton Aargau,AG,Bezirk Brugg,47.471,8.1598
5222,Umiken,Kanton Aargau,AG,Bezirk Brugg,47.4829,8.1875
5223,Riniken,Kanton Aargau,AG,Bezirk Brugg,47.494,8.1867
5225,Bözberg,Kanton Aargau,AG,Bezirk Brugg,47.4955,8.1514
5232,Villigen PSI,Kanton Aargau,AG,Bezirk Brugg,47.5296,8.2072
5233,Stilli,Kanton Aargau,AG,Bezirk Brugg,47.5172,8.2316
5234,Villigen,Kanton Aargau,AG,Bezirk Brugg,47.5268,8.2149
5235,Rüfenach AG,Kanton Aargau,AG,Bezirk Brugg,47.5071,8.209
5236,Remigen,Kanton Aargau,AG,Bezirk Brugg,47.5186,8.185
5237,Mönthal,Kanton Aargau,AG,Bezirk Brugg,47.517,8.1404
5242,Lupfig,Kanton Aargau,AG,Bezirk Brugg,47.4407,8.2038
5242,Birr,Kanton Aargau,AG,Bezirk Brugg,47.4359,8.208
5243,Mülligen,Kanton Aargau,AG,Bezirk Brugg,47.4558,8.2392
5244,Birrhard,Kanton Aargau,AG,Bezirk Brugg,47.4328,8.245
5245,Habsburg,Kanton Aargau,AG,Bezirk Brugg,47.4623,8.185
5246,Scherz,Kanton Aargau,AG,Bezirk Brugg,47.4469,8.1842
5318,Mandach,Kanton Aargau,AG,Bezirk Brugg,47.5478,8.189
5040,Schöftland,Kanton Aargau,AG,Bezirk Kulm,47.3057,8.0514
5043,Holziken,Kanton Aargau,AG,Bezirk Kulm,47.3195,8.0343
5044,Schlossrued,Kanton Aargau,AG,Bezirk Kulm,47.2912,8.0884
5046,Walde AG,Kanton Aargau,AG,Bezirk Kulm,47.2626,8.1118
5046,Schmiedrued,Kanton Aargau,AG,Bezirk Kulm,47.2626,8.1118
5708,Birrwil,Kanton Aargau,AG,Bezirk Kulm,47.2886,8.2
5712,Beinwil am See,Kanton Aargau,AG,Bezirk Kulm,47.2606,8.2051
5723,Teufenthal AG,Kanton Aargau,AG,Bezirk Kulm,47.3286,8.1207
5724,Dürrenäsch,Kanton Aargau,AG,Bezirk Kulm,47.3181,8.1585
5725,Leutwil,Kanton Aargau,AG,Bezirk Kulm,47.3083,8.1741
5726,Unterkulm,Kanton Aargau,AG,Bezirk Kulm,47.31,8.1137
5727,Oberkulm,Kanton Aargau,AG,Bezirk Kulm,47.3078,8.1442
5728,Gontenschwil,Kanton Aargau,AG,Bezirk Kulm,47.2717,8.144
5732,Zetzwil,Kanton Aargau,AG,Bezirk Kulm,47.2882,8.1509
5733,Leimbach AG,Kanton Aargau,AG,Bezirk Kulm,47.2749,8.1701
5734,Reinach AG,Kanton Aargau,AG,Bezirk Kulm,47.2573,8.1809
5736,Burg AG,Kanton Aargau,AG,Bezirk Kulm,47.2339,8.178
5737,Menziken,Kanton Aargau,AG,Bezirk Kulm,47.2425,8.1905
4333,Münchwilen AG,Kanton Aargau,AG,Bezirk Laufenburg,47.5357,7.9641
4334,Sisseln AG,Kanton Aargau,AG,Bezirk Laufenburg,47.5531,7.9917
5027,Herznach,Kanton Aargau,AG,Bezirk Laufenburg,47.4715,8.0475
5028,Ueken,Kanton Aargau,AG,Bezirk Laufenburg,47.4845,8.0444
5062,Oberhof,Kanton Aargau,AG,Bezirk Laufenburg,47.4487,8.0027
5063,Wölflinswil,Kanton Aargau,AG,Bezirk Laufenburg,47.4607,7.9984
5064,Wittnau,Kanton Aargau,AG,Bezirk Laufenburg,47.4814,7.9758
5070,Frick,Kanton Aargau,AG,Bezirk Laufenburg,47.5117,8.0247
5072,Oeschgen,Kanton Aargau,AG,Bezirk Laufenburg,47.5231,8.019
5073,Gipf-Oberfrick,Kanton Aargau,AG,Bezirk Laufenburg,47.4988,8.005
5074,Eiken,Kanton Aargau,AG,Bezirk Laufenburg,47.5339,7.9888
5075,Hornussen,Kanton Aargau,AG,Bezirk Laufenburg,47.5003,8.0613
5079,Zeihen,Kanton Aargau,AG,Bezirk Laufenburg,47.4754,8.0831
5080,Laufenburg,Kanton Aargau,AG,Bezirk Laufenburg,47.5598,8.0622
5082,Kaisten,Kanton Aargau,AG,Bezirk Laufenburg,47.5416,8.0434
5083,Ittenthal,Kanton Aargau,AG,Bezirk Laufenburg,47.5183,8.0596
5084,Rheinsulz,Kanton Aargau,AG,Bezirk Laufenburg,47.5556,8.0899
5085,Sulz AG,Kanton Aargau,AG,Bezirk Laufenburg,47.536,8.0963
5272,Gansingen,Kanton Aargau,AG,Bezirk Laufenburg,47.5429,8.1352
5273,Oberhofen AG,Kanton Aargau,AG,Bezirk Laufenburg,47.5538,8.1332
5274,Mettau,Kanton Aargau,AG,Bezirk Laufenburg,47.5636,8.1293
5275,Etzgen,Kanton Aargau,AG,Bezirk Laufenburg,47.5713,8.1106
5276,Wil AG,Kanton Aargau,AG,Bezirk Laufenburg,47.5606,8.1525
5277,Hottwil,Kanton Aargau,AG,Bezirk Laufenburg,47.5484,8.1617
5326,Schwaderloch,Kanton Aargau,AG,Bezirk Laufenburg,47.5854,8.1446
5102,Rupperswil,Kanton Aargau,AG,Bezirk Lenzburg,47.4013,8.1288
5103,Möriken AG,Kanton Aargau,AG,Bezirk Lenzburg,47.4156,8.1845
5103,Wildegg,Kanton Aargau,AG,Bezirk Lenzburg,47.4147,8.1636
5113,Holderbank AG,Kanton Aargau,AG,Bezirk Lenzburg,47.4309,8.1707
5502,Hunzenschwil,Kanton Aargau,AG,Bezirk Lenzburg,47.3842,8.1229
5503,Schafisheim,Kanton Aargau,AG,Bezirk Lenzburg,47.3753,8.1408
5504,Othmarsingen,Kanton Aargau,AG,Bezirk Lenzburg,47.4015,8.2185
5505,Brunegg,Kanton Aargau,AG,Bezirk Lenzburg,47.4212,8.2158
5600,Lenzburg,Kanton Aargau,AG,Bezirk Lenzburg,47.3885,8.175
5600,Ammerswil AG,Kanton Aargau,AG,Bezirk Lenzburg,47.3682,8.2074
5603,Staufen,Kanton Aargau,AG,Bezirk Lenzburg,47.3837,8.1661
5604,Hendschiken,Kanton Aargau,AG,Bezirk Lenzburg,47.3865,8.2178
5606,Dintikon,Kanton Aargau,AG,Bezirk Lenzburg,47.3652,8.2302
5615,Fahrwangen,Kanton Aargau,AG,Bezirk Lenzburg,47.2948,8.2421
5616,Meisterschwanden,Kanton Aargau,AG,Bezirk Lenzburg,47.2949,8.2287
5617,Tennwil,Kanton Aargau,AG,Bezirk Lenzburg,47.3081,8.2227
5702,Niederlenz,Kanton Aargau,AG,Bezirk Lenzburg,47.4008,8.1764
5703,Seon,Kanton Aargau,AG,Bezirk Lenzburg,47.3449,8.1561
5704,Egliswil,Kanton Aargau,AG,Bezirk Lenzburg,47.3495,8.188
5705,Hallwil,Kanton Aargau,AG,Bezirk Lenzburg,47.3265,8.1779
5706,Boniswil,Kanton Aargau,AG,Bezirk Lenzburg,47.3173,8.1896
5707,Seengen,Kanton Aargau,AG,Bezirk Lenzburg,47.3285,8.2051
5618,Bettwil,Kanton Aargau,AG,Bezirk Muri,47.2906,8.2679
5622,Waltenschwil,Kanton Aargau,AG,Bezirk Muri,47.3349,8.3034
5623,Boswil,Kanton Aargau,AG,Bezirk Muri,47.3038,8.3088
5624,Waldhäusern AG,Kanton Aargau,AG,Bezirk Muri,47.3283,8.3162
5624,Bünzen,Kanton Aargau,AG,Bezirk Muri,47.3098,8.3238
5625,Kallern,Kanton Aargau,AG,Bezirk Muri,47.3016,8.2813
5627,Besenbüren,Kanton Aargau,AG,Bezirk Muri,47.3144,8.3459
5628,Aristau,Kanton Aargau,AG,Bezirk Muri,47.2869,8.3636
5630,Muri AG,Kanton Aargau,AG,Bezirk Muri,47.2743,8.3385
5632,Buttwil,Kanton Aargau,AG,Bezirk Muri,47.2683,8.3106
5634,Merenschwand,Kanton Aargau,AG,Bezirk Muri,47.2587,8.3753
5636,Benzenschwil,Kanton Aargau,AG,Bezirk Muri,47.248,8.3651
5637,Geltwil,Kanton Aargau,AG,Bezirk Muri,47.249,8.326
5637,Beinwil (Freiamt),Kanton Aargau,AG,Bezirk Muri,47.2296,8.3392
5642,Mühlau,Kanton Aargau,AG,Bezirk Muri,47.2304,8.3896
5643,Meienberg,Kanton Aargau,AG,Bezirk Muri,47.1978,8.3762
5643,Alikon,Kanton Aargau,AG,Bezirk Muri,47.2005,8.3604
5643,Sins,Kanton Aargau,AG,Bezirk Muri,47.1922,8.3958
5643,Sins,Kanton Aargau,AG,Bezirk Muri,47.1922,8.3958
5644,Auw,Kanton Aargau,AG,Bezirk Muri,47.2108,8.3658
5645,Aettenschwil,Kanton Aargau,AG,Bezirk Muri,47.1836,8.3718
5645,Fenkrieden,Kanton Aargau,AG,Bezirk Muri,47.1609,8.3702
5646,Abtwil AG,Kanton Aargau,AG,Bezirk Muri,47.1733,8.3577
5647,Oberrüti,Kanton Aargau,AG,Bezirk Muri,47.1667,8.3944
6042,Dietwil,Kanton Aargau,AG,Bezirk Muri,47.1466,8.3936
8919,Rottenschwil,Kanton Aargau,AG,Bezirk Muri,47.3137,8.3614
4303,Kaiseraugst,Kanton Aargau,AG,Bezirk Rheinfelden,47.5397,7.726
4305,Olsberg,Kanton Aargau,AG,Bezirk Rheinfelden,47.5233,7.7837
4310,Rheinfelden,Kanton Aargau,AG,Bezirk Rheinfelden,47.5544,7.794
4312,Magden,Kanton Aargau,AG,Bezirk Rheinfelden,47.5287,7.8113
4313,Möhlin,Kanton Aargau,AG,Bezirk Rheinfelden,47.5592,7.8433
4314,Zeiningen,Kanton Aargau,AG,Bezirk Rheinfelden,47.5414,7.8718
4315,Zuzgen,Kanton Aargau,AG,Bezirk Rheinfelden,47.5251,7.8999
4316,Hellikon,Kanton Aargau,AG,Bezirk Rheinfelden,47.5094,7.9242
4317,Wegenstetten,Kanton Aargau,AG,Bezirk Rheinfelden,47.4979,7.9316
4322,Mumpf,Kanton Aargau,AG,Bezirk Rheinfelden,47.5456,7.9212
4323,Wallbach,Kanton Aargau,AG,Bezirk Rheinfelden,47.5598,7.9029
4324,Obermumpf,Kanton Aargau,AG,Bezirk Rheinfelden,47.5294,7.9376
4325,Schupfart,Kanton Aargau,AG,Bezirk Rheinfelden,47.5137,7.9658
4332,Stein AG,Kanton Aargau,AG,Bezirk Rheinfelden,47.544,7.9526
4663,Aarburg,Kanton Aargau,AG,Bezirk Zofingen,47.3207,7.8999
4665,Oftringen,Kanton Aargau,AG,Bezirk Zofingen,47.3138,7.9253
4800,Zofingen,Kanton Aargau,AG,Bezirk Zofingen,47.2878,7.9459
4801,Zofingen,Kanton Aargau,AG,Bezirk Zofingen,47.2888,7.9633
4802,Strengelbach,Kanton Aargau,AG,Bezirk Zofingen,47.2792,7.929
4803,Vordemwald,Kanton Aargau,AG,Bezirk Zofingen,47.2759,7.9011
4805,Brittnau,Kanton Aargau,AG,Bezirk Zofingen,47.2595,7.9469
4807,Zofingen PF,Kanton Aargau,AG,Bezirk Zofingen,47.2888,7.9633
4808,Zofingen PF,Kanton Aargau,AG,Bezirk Zofingen,47.2888,7.9633
4809,Zofingen PF UBS,Kanton Aargau,AG,Bezirk Zofingen,47.2888,7.9633
4809,Zofingen PF,Kanton Aargau,AG,Bezirk Zofingen,47.2888,7.9633
4812,Mühlethal,Kanton Aargau,AG,Bezirk Zofingen,47.3028,7.9792
4813,Uerkheim,Kanton Aargau,AG,Bezirk Zofingen,47.3029,8.0237
4814,Bottenwil,Kanton Aargau,AG,Bezirk Zofingen,47.2854,8.0046
4852,Rothrist,Kanton Aargau,AG,Bezirk Zofingen,47.3051,7.892
4853,Riken AG,Kanton Aargau,AG,Bezirk Zofingen,47.278,7.8508
4853,Murgenthal,Kanton Aargau,AG,Bezirk Zofingen,47.2677,7.8358
4853,Murgenthal,Kanton Aargau,AG,Bezirk Zofingen,47.2677,7.8358
4856,Glashütten,Kanton Aargau,AG,Bezirk Zofingen,47.2588,7.8446
5053,Staffelbach,Kanton Aargau,AG,Bezirk Zofingen,47.2839,8.0421
5053,Wittwil,Kanton Aargau,AG,Bezirk Zofingen,47.2919,8.0364
5054,Kirchleerau,Kanton Aargau,AG,Bezirk Zofingen,47.2758,8.0658
5054,Moosleerau,Kanton Aargau,AG,Bezirk Zofingen,47.269,8.0641
5056,Attelwil,Kanton Aargau,AG,Bezirk Zofingen,47.2634,8.0397
5057,Reitnau,Kanton Aargau,AG,Bezirk Zofingen,47.2522,8.0422
5058,Wiliberg,Kanton Aargau,AG,Bezirk Zofingen,47.2687,8.0214
5742,Kölliken,Kanton Aargau,AG,Bezirk Zofingen,47.3388,8.0264
5745,Safenwil,Kanton Aargau,AG,Bezirk Zofingen,47.3214,7.9812
5304,Endingen,Kanton Aargau,AG,Bezirk Zurzach,47.5389,8.2903
5305,Unterendingen,Kanton Aargau,AG,Bezirk Zurzach,47.5486,8.2917
5306,Tegerfelden,Kanton Aargau,AG,Bezirk Zurzach,47.5581,8.2891
5312,Döttingen,Kanton Aargau,AG,Bezirk Zurzach,47.5709,8.2585
5313,Klingnau,Kanton Aargau,AG,Bezirk Zurzach,47.5836,8.2488
5314,Kleindöttingen,Kanton Aargau,AG,Bezirk Zurzach,47.5709,8.2465
5315,Böttstein,Kanton Aargau,AG,Bezirk Zurzach,47.5554,8.2226
5316,Leuggern,Kanton Aargau,AG,Bezirk Zurzach,47.5819,8.2195
5317,Hettenschwil,Kanton Aargau,AG,Bezirk Zurzach,47.5786,8.2003
5322,Koblenz,Kanton Aargau,AG,Bezirk Zurzach,47.6097,8.2375
5323,Rietheim,Kanton Aargau,AG,Bezirk Zurzach,47.6,8.2833
5324,Full-Reuenthal,Kanton Aargau,AG,Bezirk Zurzach,47.6087,8.2027
5325,Leibstadt,Kanton Aargau,AG,Bezirk Zurzach,47.5879,8.1761
5330,Bad Zurzach,Kanton Aargau,AG,Bezirk Zurzach,47.5876,8.2936
5332,Rekingen AG,Kanton Aargau,AG,Bezirk Zurzach,47.5719,8.3178
5333,Baldingen,Kanton Aargau,AG,Bezirk Zurzach,47.5556,8.3167
5334,Böbikon,Kanton Aargau,AG,Bezirk Zurzach,47.5556,8.3347
5425,Schneisingen,Kanton Aargau,AG,Bezirk Zurzach,47.5194,8.3667
5426,Lengnau AG,Kanton Aargau,AG,Bezirk Zurzach,47.5222,8.3306
5462,Siglistorf,Kanton Aargau,AG,Bezirk Zurzach,47.5453,8.3806
5463,Wislikofen,Kanton Aargau,AG,Bezirk Zurzach,47.5583,8.3639
5464,Rümikon AG,Kanton Aargau,AG,Bezirk Zurzach,47.5656,8.3754
5465,Mellikon,Kanton Aargau,AG,Bezirk Zurzach,47.5694,8.3542
5466,Kaiserstuhl AG,Kanton Aargau,AG,Bezirk Zurzach,47.5684,8.418
5467,Fisibach,Kanton Aargau,AG,Bezirk Zurzach,47.5639,8.4097
9050,Appenzell Eggerstanden,Kanton Appenzell Innerrhoden,AI,Appenzell Inner Rhodes,47.3324,9.4686
9050,Appenzell Schlatt,Kanton Appenzell Innerrhoden,AI,Appenzell Inner Rhodes,47.3531,9.3623
9050,Appenzell Meistersrüte,Kanton Appenzell Innerrhoden,AI,Appenzell Inner Rhodes,47.3446,9.4324
9050,Appenzell,Kanton Appenzell Innerrhoden,AI,Appenzell Inner Rhodes,47.331,9.41
9050,Appenzell Steinegg,Kanton Appenzell Innerrhoden,AI,Appenzell Inner Rhodes,47.322,9.4315
9050,Appenzell Enggenhütten,Kanton Appenzell Innerrhoden,AI,Appenzell Inner Rhodes,47.3531,9.3623
9054,Haslen AI,Kanton Appenzell Innerrhoden,AI,Appenzell Inner Rhodes,47.3693,9.3675
9057,Weissbad,Kanton Appenzell Innerrhoden,AI,Appenzell Inner Rhodes,47.3089,9.4347
9057,Schwende,Kanton Appenzell Innerrhoden,AI,Appenzell Inner Rhodes,47.303,9.4367
9057,Wasserauen,Kanton Appenzell Innerrhoden,AI,Appenzell Inner Rhodes,47.2834,9.4258
9058,Brülisau,Kanton Appenzell Innerrhoden,AI,Appenzell Inner Rhodes,47.2986,9.457
9108,Gontenbad,Kanton Appenzell Innerrhoden,AI,Appenzell Inner Rhodes,47.3331,9.3737
9108,Gonten,Kanton Appenzell Innerrhoden,AI,Appenzell Inner Rhodes,47.3272,9.347
9108,Jakobsbad,Kanton Appenzell Innerrhoden,AI,Appenzell Inner Rhodes,47.3196,9.3263
9413,Oberegg,Kanton Appenzell Innerrhoden,AI,Appenzell Inner Rhodes,47.4253,9.5513
9413,Oberegg,Kanton Appenzell Innerrhoden,AI,Appenzell Inner Rhodes,47.4253,9.5513
9442,Büriswilen,Kanton Appenzell Innerrhoden,AI,Appenzell Inner Rhodes,47.4349,9.6058
9063,Stein AR,Kanton Appenzell Ausserrhoden,AR,Bezirk Hinterland,47.3713,9.3435
9064,Hundwil,Kanton Appenzell Ausserrhoden,AR,Bezirk Hinterland,47.3646,9.3185
9100,Herisau,Kanton Appenzell Ausserrhoden,AR,Bezirk Hinterland,47.3861,9.2792
9102,Herisau,Kanton Appenzell Ausserrhoden,AR,Bezirk Hinterland,47.3829,9.2741
9103,Schwellbrunn,Kanton Appenzell Ausserrhoden,AR,Bezirk Hinterland,47.3525,9.2489
9104,Waldstatt,Kanton Appenzell Ausserrhoden,AR,Bezirk Hinterland,47.3563,9.2834
9105,Schönengrund,Kanton Appenzell Ausserrhoden,AR,Bezirk Hinterland,47.3259,9.2269
9107,Urnäsch,Kanton Appenzell Ausserrhoden,AR,Bezirk Hinterland,47.3167,9.2795
9112,Schachen b. Herisau,Kanton Appenzell Ausserrhoden,AR,Bezirk Hinterland,47.3865,9.2445
9037,Speicherschwendi,Kanton Appenzell Ausserrhoden,AR,Bezirk Mittelland,47.4265,9.4378
9042,Speicher,Kanton Appenzell Ausserrhoden,AR,Bezirk Mittelland,47.4109,9.4433
9043,Trogen,Kanton Appenzell Ausserrhoden,AR,Bezirk Mittelland,47.4078,9.465
9052,Niederteufen,Kanton Appenzell Ausserrhoden,AR,Bezirk Mittelland,47.394,9.3667
9053,Teufen AR,Kanton Appenzell Ausserrhoden,AR,Bezirk Mittelland,47.3908,9.3864
9055,Bühler,Kanton Appenzell Ausserrhoden,AR,Bezirk Mittelland,47.3735,9.4251
9056,Gais,Kanton Appenzell Ausserrhoden,AR,Bezirk Mittelland,47.3615,9.4536
9062,Lustmühle,Kanton Appenzell Ausserrhoden,AR,Bezirk Mittelland,47.3991,9.3585
9035,Grub AR,Kanton Appenzell Ausserrhoden,AR,Bezirk Vorderland,47.4477,9.5097
9038,Rehetobel,Kanton Appenzell Ausserrhoden,AR,Bezirk Vorderland,47.4261,9.483
9044,Wald AR,Kanton Appenzell Ausserrhoden,AR,Bezirk Vorderland,47.4156,9.491
9405,Wienacht-Tobel,Kanton Appenzell Ausserrhoden,AR,Bezirk Vorderland,47.4648,9.5334
9410,Heiden,Kanton Appenzell Ausserrhoden,AR,Bezirk Vorderland,47.4425,9.5329
9411,Schachen b. Reute,Kanton Appenzell Ausserrhoden,AR,Bezirk Vorderland,47.4268,9.5618
9411,Reute AR,Kanton Appenzell Ausserrhoden,AR,Bezirk Vorderland,47.4201,9.5731
9426,Lutzenberg,Kanton Appenzell Ausserrhoden,AR,Bezirk Vorderland,47.4613,9.5761
9427,Wolfhalden,Kanton Appenzell Ausserrhoden,AR,Bezirk Vorderland,47.4527,9.5481
9428,Walzenhausen,Kanton Appenzell Ausserrhoden,AR,Bezirk Vorderland,47.4487,9.605
2333,La Ferrière,Canton de Berne,BE,Jura bernois,47.143,6.8922
2345,Le Cerneux-Veusil,Canton de Berne,BE,Jura bernois,47.1794,6.9669
2515,Prêles,Canton de Berne,BE,Jura bernois,47.0993,7.1302
2516,Lamboing,Canton de Berne,BE,Jura bernois,47.1168,7.1348
2517,Diesse,Canton de Berne,BE,Jura bernois,47.1134,7.1169
2518,Nods,Canton de Berne,BE,Jura bernois,47.1149,7.0801
2520,La Neuveville,Canton de Berne,BE,Jura bernois,47.0659,7.0972
2534,Orvin,Canton de Berne,BE,Jura bernois,47.1607,7.2137
2534,Les Prés-d'Orvin,Canton de Berne,BE,Jura bernois,47.157,7.176
2535,Frinvillier,Canton de Berne,BE,Jura bernois,47.1691,7.2549
2536,Plagne,Canton de Berne,BE,Jura bernois,47.1883,7.2871
2537,Vauffelin,Canton de Berne,BE,Jura bernois,47.1873,7.3001
2538,Romont BE,Canton de Berne,BE,Jura bernois,47.1886,7.3406
2603,Péry,Canton de Berne,BE,Jura bernois,47.194,7.2491
2604,La Heutte,Canton de Berne,BE,Jura bernois,47.1907,7.2261
2605,Sonceboz-Sombeval,Canton de Berne,BE,Jura bernois,47.1915,7.1785
2606,Corgémont,Canton de Berne,BE,Jura bernois,47.1946,7.1452
2607,Cortébert,Canton de Berne,BE,Jura bernois,47.1883,7.1089
2608,Courtelary,Canton de Berne,BE,Jura bernois,47.1782,7.0724
2608,Montagne-de-Courtelary,Canton de Berne,BE,Jura bernois,47.1757,7.1111
2610,Les Pontins,Canton de Berne,BE,Jura bernois,47.1312,6.9989
2610,Mont-Soleil,Canton de Berne,BE,Jura bernois,47.1597,6.9868
2610,St-Imier,Canton de Berne,BE,Jura bernois,47.1582,7.0066
2610,Mont-Crosin,Canton de Berne,BE,Jura bernois,47.1835,7.0343
2612,Cormoret,Canton de Berne,BE,Jura bernois,47.1708,7.0542
2613,Villeret,Canton de Berne,BE,Jura bernois,47.1584,7.0189
2615,Sonvilier,Canton de Berne,BE,Jura bernois,47.1388,6.964
2615,Montagne-de-Sonvilier,Canton de Berne,BE,Jura bernois,47.1388,6.964
2616,Renan BE,Canton de Berne,BE,Jura bernois,47.1269,6.9283
2710,Tavannes,Canton de Berne,BE,Jura bernois,47.2208,7.1976
2712,Le Fuet,Canton de Berne,BE,Jura bernois,47.2448,7.184
2713,Bellelay,Canton de Berne,BE,Jura bernois,47.2633,7.1666
2715,Monible,Canton de Berne,BE,Jura bernois,47.277,7.2033
2715,Châtelat,Canton de Berne,BE,Jura bernois,47.2628,7.1885
2716,Sornetan,Canton de Berne,BE,Jura bernois,47.2746,7.2169
2717,Rebévelier,Canton de Berne,BE,Jura bernois,47.2914,7.1923
2717,Fornet-Dessous,Canton de Berne,BE,Jura bernois,47.2914,7.1923
2720,Tramelan,Canton de Berne,BE,Jura bernois,47.2239,7.0995
2720,La Tanne,Canton de Berne,BE,Jura bernois,47.2221,7.1533
2722,Les Reussilles,Canton de Berne,BE,Jura bernois,47.2259,7.0846
2723,Mont-Tramelan,Canton de Berne,BE,Jura bernois,47.21,7.0648
2732,Loveresse,Canton de Berne,BE,Jura bernois,47.2439,7.2388
2732,Saicourt,Canton de Berne,BE,Jura bernois,47.2428,7.2075
2732,Reconvilier,Canton de Berne,BE,Jura bernois,47.2343,7.2224
2732,Saules BE,Canton de Berne,BE,Jura bernois,47.2457,7.2218
2733,Pontenet,Canton de Berne,BE,Jura bernois,47.2433,7.2546
2735,Malleray,Canton de Berne,BE,Jura bernois,47.2384,7.2729
2735,Bévilard,Canton de Berne,BE,Jura bernois,47.2371,7.2832
2735,Champoz,Canton de Berne,BE,Jura bernois,47.2558,7.2953
2736,Sorvilier,Canton de Berne,BE,Jura bernois,47.2393,7.3037
2738,Court,Canton de Berne,BE,Jura bernois,47.2396,7.3365
2740,Moutier,Canton de Berne,BE,Jura bernois,47.2782,7.3695
2742,Perrefitte,Canton de Berne,BE,Jura bernois,47.2757,7.3416
2743,Eschert,Canton de Berne,BE,Jura bernois,47.2753,7.4013
2744,Belprahon,Canton de Berne,BE,Jura bernois,47.2834,7.4058
2745,Grandval,Canton de Berne,BE,Jura bernois,47.2828,7.425
2746,Crémines,Canton de Berne,BE,Jura bernois,47.2833,7.4403
2747,Corcelles BE,Canton de Berne,BE,Jura bernois,47.2849,7.4524
2747,Seehof,Canton de Berne,BE,Jura bernois,47.3032,7.5209
2748,Souboz,Canton de Berne,BE,Jura bernois,47.2749,7.2445
2748,Les Ecorcheresses,Canton de Berne,BE,Jura bernois,47.2773,7.2803
2762,Roches BE,Canton de Berne,BE,Jura bernois,47.302,7.3813
2827,Schelten,Canton de Berne,BE,Jura bernois,47.3343,7.5517
2500,Biel/Bienne 4,Canton de Berne,BE,Biel/Bienne District,47.1492,7.2611
2500,Biel/Bienne 6,Canton de Berne,BE,Biel/Bienne District,47.1492,7.2611
2500,Biel/Bienne,Canton de Berne,BE,Biel/Bienne District,47.1492,7.2611
2501,Biel/Bienne,Canton de Berne,BE,Biel/Bienne District,47.1492,7.2611
2502,Biel/Bienne,Canton de Berne,BE,Biel/Bienne District,47.1371,7.2461
2503,Biel/Bienne,Canton de Berne,BE,Biel/Bienne District,47.1371,7.2461
2504,Biel/Bienne,Canton de Berne,BE,Biel/Bienne District,47.1371,7.2461
2505,Biel/Bienne,Canton de Berne,BE,Biel/Bienne District,47.1371,7.2461
2512,Tüscherz-Alfermée,Canton de Berne,BE,Biel/Bienne District,47.1141,7.1942
2513,Twann,Canton de Berne,BE,Biel/Bienne District,47.0942,7.157
2514,Ligerz,Canton de Berne,BE,Biel/Bienne District,47.0837,7.1348
2532,Macolin,Canton de Berne,BE,Biel/Bienne District,47.139,7.2141
2533,Evilard,Canton de Berne,BE,Biel/Bienne District,47.1505,7.239
2542,Pieterlen,Canton de Berne,BE,Biel/Bienne District,47.175,7.3379
2543,Lengnau BE,Canton de Berne,BE,Biel/Bienne District,47.1815,7.3681
2552,Orpund,Canton de Berne,BE,Biel/Bienne District,47.1389,7.3078
2553,Safnern,Canton de Berne,BE,Biel/Bienne District,47.15,7.3231
2554,Meinisberg,Canton de Berne,BE,Biel/Bienne District,47.1597,7.348
2555,Brügg BE,Canton de Berne,BE,Biel/Bienne District,47.1237,7.2789
2556,Scheuren,Canton de Berne,BE,Biel/Bienne District,47.1347,7.3209
2556,Schwadernau,Canton de Berne,BE,Biel/Bienne District,47.1278,7.3078
2558,Aegerten,Canton de Berne,BE,Biel/Bienne District,47.1211,7.2916
2560,Nidau,Canton de Berne,BE,Biel/Bienne District,47.1255,7.2403
2562,Port,Canton de Berne,BE,Biel/Bienne District,47.1141,7.2589
2563,Ipsach,Canton de Berne,BE,Biel/Bienne District,47.1139,7.2303
2564,Bellmund,Canton de Berne,BE,Biel/Bienne District,47.1085,7.2461
2572,Sutz,Canton de Berne,BE,Biel/Bienne District,47.1034,7.2208
2572,Mörigen,Canton de Berne,BE,Biel/Bienne District,47.0851,7.2141
2557,Studen BE,Canton de Berne,BE,Seeland District,47.113,7.3032
2565,Jens,Canton de Berne,BE,Seeland District,47.0963,7.2636
2575,Täuffelen,Canton de Berne,BE,Seeland District,47.0652,7.197
2575,Gerolfingen,Canton de Berne,BE,Seeland District,47.0771,7.1989
2575,Hagneck,Canton de Berne,BE,Seeland District,47.057,7.1853
2576,Lüscherz,Canton de Berne,BE,Seeland District,47.0446,7.1527
2577,Finsterhennen,Canton de Berne,BE,Seeland District,47.0248,7.1754
2577,Siselen BE,Canton de Berne,BE,Seeland District,47.0324,7.1888
3035,Frieswil,Canton de Berne,BE,Seeland District,46.9951,7.2866
3036,Detligen,Canton de Berne,BE,Seeland District,47.0031,7.2736
3053,Lätti,Canton de Berne,BE,Seeland District,47.0378,7.4322
3054,Schüpfen,Canton de Berne,BE,Seeland District,47.0366,7.3772
3225,Müntschemier,Canton de Berne,BE,Seeland District,46.9955,7.1463
3226,Treiten,Canton de Berne,BE,Seeland District,47.0086,7.1603
3232,Ins,Canton de Berne,BE,Seeland District,47.0058,7.1061
3233,Tschugg,Canton de Berne,BE,Seeland District,47.0253,7.081
3234,Vinelz,Canton de Berne,BE,Seeland District,47.034,7.1161
3235,Erlach,Canton de Berne,BE,Seeland District,47.0422,7.0973
3236,Gampelen,Canton de Berne,BE,Seeland District,47.012,7.0577
3237,Brüttelen,Canton de Berne,BE,Seeland District,47.0227,7.1479
3238,Gals,Canton de Berne,BE,Seeland District,47.0284,7.0518
3250,Lyss,Canton de Berne,BE,Seeland District,47.0741,7.3066
3251,Ruppoldsried,Canton de Berne,BE,Seeland District,47.0891,7.4265
3251,Wengi b. Büren,Canton de Berne,BE,Seeland District,47.0862,7.3954
3252,Worben,Canton de Berne,BE,Seeland District,47.1028,7.2952
3255,Rapperswil BE,Canton de Berne,BE,Seeland District,47.0632,7.4109
3256,Seewil,Canton de Berne,BE,Seeland District,47.0495,7.4098
3256,Dieterswil,Canton de Berne,BE,Seeland District,47.0565,7.4259
3256,Bangerten b. Dieterswil,Canton de Berne,BE,Seeland District,47.053,7.4178
3257,Grossaffoltern,Canton de Berne,BE,Seeland District,47.0659,7.3623
3257,Ammerzwil BE,Canton de Berne,BE,Seeland District,47.0704,7.3418
3262,Suberg,Canton de Berne,BE,Seeland District,47.061,7.3373
3263,Büetigen,Canton de Berne,BE,Seeland District,47.106,7.338
3264,Diessbach b. Büren,Canton de Berne,BE,Seeland District,47.1078,7.3612
3266,Wiler b. Seedorf,Canton de Berne,BE,Seeland District,47.0499,7.321
3267,Seedorf BE,Canton de Berne,BE,Seeland District,47.0345,7.3125
3268,Lobsigen,Canton de Berne,BE,Seeland District,47.0282,7.2945
3270,Aarberg,Canton de Berne,BE,Seeland District,47.0444,7.2758
3271,Radelfingen b. Aarberg,Canton de Berne,BE,Seeland District,47.0215,7.2718
3272,Epsach,Canton de Berne,BE,Seeland District,47.0705,7.2217
3272,Walperswil,Canton de Berne,BE,Seeland District,47.0602,7.2296
3273,Kappelen,Canton de Berne,BE,Seeland District,47.0602,7.2686
3274,Bühl b. Aarberg,Canton de Berne,BE,Seeland District,47.0708,7.2454
3274,Hermrigen,Canton de Berne,BE,Seeland District,47.0817,7.2416
3274,Merzligen,Canton de Berne,BE,Seeland District,47.0873,7.2538
3282,Bargen BE,Canton de Berne,BE,Seeland District,47.0375,7.2629
3283,Kallnach,Canton de Berne,BE,Seeland District,47.0203,7.2355
3283,Niederried b. Kallnach,Canton de Berne,BE,Seeland District,47.0112,7.2501
3292,Busswil BE,Canton de Berne,BE,Seeland District,47.0997,7.3222
3293,Dotzigen,Canton de Berne,BE,Seeland District,47.1217,7.3456
3294,Meienried,Canton de Berne,BE,Seeland District,47.1387,7.3414
3294,Büren an der Aare,Canton de Berne,BE,Seeland District,47.1398,7.3722
3295,Rüti b. Büren,Canton de Berne,BE,Seeland District,47.1513,7.4113
3296,Arch,Canton de Berne,BE,Seeland District,47.1653,7.4314
3297,Leuzigen,Canton de Berne,BE,Seeland District,47.1746,7.4578
3298,Oberwil b. Büren,Canton de Berne,BE,Seeland District,47.1307,7.4114
3360,Herzogenbuchsee,Canton de Berne,BE,Oberaargau,47.1879,7.7062
3362,Niederönz,Canton de Berne,BE,Oberaargau,47.1842,7.6906
3363,Oberönz,Canton de Berne,BE,Oberaargau,47.1779,7.6949
3365,Seeberg,Canton de Berne,BE,Oberaargau,47.1559,7.6657
3365,Grasswil,Canton de Berne,BE,Oberaargau,47.1441,7.6701
3366,Bollodingen,Canton de Berne,BE,Oberaargau,47.1662,7.7056
3366,Bettenhausen,Canton de Berne,BE,Oberaargau,47.1715,7.7157
3367,Ochlenberg,Canton de Berne,BE,Oberaargau,47.1495,7.736
3367,Thörigen,Canton de Berne,BE,Oberaargau,47.1731,7.7289
3368,Bleienbach,Canton de Berne,BE,Oberaargau,47.1849,7.7563
3372,Wanzwil,Canton de Berne,BE,Oberaargau,47.2003,7.6932
3373,Röthenbach Herzogenbuchsee,Canton de Berne,BE,Oberaargau,47.2064,7.6816
3373,Heimenhausen,Canton de Berne,BE,Oberaargau,47.209,7.6996
3374,Wangenried,Canton de Berne,BE,Oberaargau,47.2171,7.6556
3375,Inkwil,Canton de Berne,BE,Oberaargau,47.201,7.6712
3376,Berken,Canton de Berne,BE,Oberaargau,47.2258,7.7059
3376,Graben,Canton de Berne,BE,Oberaargau,47.2153,7.7178
3377,Walliswil b. Wangen,Canton de Berne,BE,Oberaargau,47.2288,7.6829
3380,Wangen an der Aare,Canton de Berne,BE,Oberaargau,47.232,7.6545
3380,Walliswil b. Niederbipp,Canton de Berne,BE,Oberaargau,47.2362,7.6953
3464,Schmidigen-Mühleweg,Canton de Berne,BE,Oberaargau,47.0943,7.7459
3475,Hermiswil,Canton de Berne,BE,Oberaargau,47.1422,7.683
3475,Riedtwil,Canton de Berne,BE,Oberaargau,47.1437,7.6982
3476,Oschwand,Canton de Berne,BE,Oberaargau,47.1408,7.7129
4536,Attiswil,Canton de Berne,BE,Oberaargau,47.2467,7.6135
4537,Wiedlisbach,Canton de Berne,BE,Oberaargau,47.2519,7.6461
4538,Oberbipp,Canton de Berne,BE,Oberaargau,47.2607,7.6636
4539,Rumisberg,Canton de Berne,BE,Oberaargau,47.2641,7.6403
4539,Farnern,Canton de Berne,BE,Oberaargau,47.2669,7.6178
4704,Niederbipp,Canton de Berne,BE,Oberaargau,47.2661,7.6946
4704,Wolfisberg,Canton de Berne,BE,Oberaargau,47.2748,7.6599
4900,Langenthal,Canton de Berne,BE,Oberaargau,47.2153,7.7961
4901,Langenthal,Canton de Berne,BE,Oberaargau,47.2158,7.7945
4911,Schwarzhäusern,Canton de Berne,BE,Oberaargau,47.2517,7.7655
4912,Aarwangen,Canton de Berne,BE,Oberaargau,47.2385,7.7685
4913,Bannwil,Canton de Berne,BE,Oberaargau,47.234,7.731
4914,Roggwil BE,Canton de Berne,BE,Oberaargau,47.2412,7.8214
4916,Untersteckholz,Canton de Berne,BE,Oberaargau,47.2076,7.8445
4917,Melchnau,Canton de Berne,BE,Oberaargau,47.1821,7.8513
4917,Busswil b. Melchnau,Canton de Berne,BE,Oberaargau,47.1876,7.8295
4919,Reisiswil,Canton de Berne,BE,Oberaargau,47.1651,7.8463
4922,Thunstetten,Canton de Berne,BE,Oberaargau,47.2027,7.7575
4922,Bützberg,Canton de Berne,BE,Oberaargau,47.2141,7.7431
4923,Wynau,Canton de Berne,BE,Oberaargau,47.2557,7.8163
4924,Obersteckholz,Canton de Berne,BE,Oberaargau,47.1993,7.8171
4932,Lotzwil,Canton de Berne,BE,Oberaargau,47.1913,7.791
4932,Gutenburg,Canton de Berne,BE,Oberaargau,47.1838,7.7948
4933,Rütschelen,Canton de Berne,BE,Oberaargau,47.1711,7.7709
4934,Madiswil,Canton de Berne,BE,Oberaargau,47.1646,7.7986
4935,Leimiswil,Canton de Berne,BE,Oberaargau,47.1508,7.7634
4936,Kleindietwil,Canton de Berne,BE,Oberaargau,47.1457,7.7896
4937,Ursenbach,Canton de Berne,BE,Oberaargau,47.137,7.7719
4938,Rohrbach,Canton de Berne,BE,Oberaargau,47.1352,7.8133
4938,Rohrbachgraben,Canton de Berne,BE,Oberaargau,47.1193,7.8004
4942,Walterswil BE,Canton de Berne,BE,Oberaargau,47.1122,7.778
4943,Oeschenbach,Canton de Berne,BE,Oberaargau,47.1029,7.7476
4944,Auswil,Canton de Berne,BE,Oberaargau,47.1436,7.8454
4950,Huttwil,Canton de Berne,BE,Oberaargau,47.115,7.8621
4952,Eriswil,Canton de Berne,BE,Oberaargau,47.0782,7.8515
4953,Schwarzenbach (Huttwil),Canton de Berne,BE,Oberaargau,47.108,7.8303
4954,Wyssachen,Canton de Berne,BE,Oberaargau,47.0785,7.8292
4955,Gondiswil,Canton de Berne,BE,Oberaargau,47.1468,7.8714
3309,Kernenried,Canton de Berne,BE,Emmental District,47.0697,7.5468
3315,Bätterkinden,Canton de Berne,BE,Emmental District,47.1336,7.541
3315,Kräiligen,Canton de Berne,BE,Emmental District,47.1504,7.5343
3324,Mötschwil,Canton de Berne,BE,Emmental District,47.0411,7.5756
3324,Hindelbank,Canton de Berne,BE,Emmental District,47.0427,7.5414
3325,Hettiswil b. Hindelbank,Canton de Berne,BE,Emmental District,47.027,7.5382
3326,Krauchthal,Canton de Berne,BE,Emmental District,47.0096,7.5664
3400,Burgdorf,Canton de Berne,BE,Emmental District,47.059,7.6279
3401,Burgdorf,Canton de Berne,BE,Emmental District,47.0537,7.6191
3412,Heimiswil,Canton de Berne,BE,Emmental District,47.0675,7.6667
3413,Kaltacker,Canton de Berne,BE,Emmental District,47.0778,7.6701
3414,Oberburg,Canton de Berne,BE,Emmental District,47.0366,7.6275
3415,Schafhausen im Emmental,Canton de Berne,BE,Emmental District,47.0174,7.6577
3415,Hasle b. Burgdorf,Canton de Berne,BE,Emmental District,47.0144,7.6511
3415,Rüegsauschachen,Canton de Berne,BE,Emmental District,47.0205,7.6644
3416,Affoltern im Emmental,Canton de Berne,BE,Emmental District,47.0653,7.7347
3417,Rüegsau,Canton de Berne,BE,Emmental District,47.0381,7.691
3418,Rüegsbach,Canton de Berne,BE,Emmental District,47.0354,7.6903
3419,Biembach im Emmental,Canton de Berne,BE,Emmental District,47.0006,7.6224
3421,Lyssach,Canton de Berne,BE,Emmental District,47.023,7.6065
3421,Rüti b. Lyssach,Canton de Berne,BE,Emmental District,47.0544,7.5824
3421,Lyssach,Canton de Berne,BE,Emmental District,47.0645,7.5823
3422,Rüdtligen,Canton de Berne,BE,Emmental District,47.0887,7.5707
3422,Alchenflüh,Canton de Berne,BE,Emmental District,47.0847,7.5811
3422,Kirchberg BE,Canton de Berne,BE,Emmental District,47.0854,7.5829
3423,Ersigen,Canton de Berne,BE,Emmental District,47.0937,7.5951
3424,Niederösch,Canton de Berne,BE,Emmental District,47.0976,7.6042
3424,Oberösch,Canton de Berne,BE,Emmental District,47.1096,7.608
3425,Willadingen,Canton de Berne,BE,Emmental District,47.1467,7.6111
3425,Koppigen,Canton de Berne,BE,Emmental District,47.1338,7.5987
3426,Aefligen,Canton de Berne,BE,Emmental District,47.0957,7.5517
3427,Utzenstorf,Canton de Berne,BE,Emmental District,47.1298,7.5584
3428,Wiler b. Utzenstorf,Canton de Berne,BE,Emmental District,47.1506,7.5566
3429,Hellsau,Canton de Berne,BE,Emmental District,47.1437,7.6483
3429,Höchstetten,Canton de Berne,BE,Emmental District,47.1438,7.6334
3432,Lützelflüh-Goldbach,Canton de Berne,BE,Emmental District,47.0076,7.6917
3433,Schwanden im Emmental,Canton de Berne,BE,Emmental District,46.988,7.6952
3435,Ramsei,Canton de Berne,BE,Emmental District,46.9983,7.7118
3436,Zollbrück,Canton de Berne,BE,Emmental District,46.9745,7.7438
3437,Rüderswil,Canton de Berne,BE,Emmental District,46.9837,7.7217
3438,Lauperswil,Canton de Berne,BE,Emmental District,46.9656,7.7421
3439,Ranflüh,Canton de Berne,BE,Emmental District,46.9876,7.7402
3452,Grünenmatt,Canton de Berne,BE,Emmental District,47.009,7.7234
3453,Heimisbach,Canton de Berne,BE,Emmental District,47.0125,7.7605
3454,Sumiswald,Canton de Berne,BE,Emmental District,47.0275,7.7453
3455,Grünen,Canton de Berne,BE,Emmental District,47.0266,7.7432
3456,Trachselwald,Canton de Berne,BE,Emmental District,47.017,7.7364
3457,Wasen im Emmental,Canton de Berne,BE,Emmental District,47.0427,7.7972
3462,Weier im Emmental,Canton de Berne,BE,Emmental District,47.0624,7.7506
3463,Häusernmoos im Emmental,Canton de Berne,BE,Emmental District,47.0807,7.7502
3465,Dürrenroth,Canton de Berne,BE,Emmental District,47.0882,7.7913
3472,Rumendingen,Canton de Berne,BE,Emmental District,47.1059,7.6394
3472,Wynigen,Canton de Berne,BE,Emmental District,47.1059,7.6668
3473,Alchenstorf,Canton de Berne,BE,Emmental District,47.1254,7.6379
3474,Rüedisbach,Canton de Berne,BE,Emmental District,47.1208,7.7044
3534,Signau,Canton de Berne,BE,Emmental District,46.9194,7.7242
3535,Schüpbach,Canton de Berne,BE,Emmental District,46.9261,7.74
3536,Aeschau,Canton de Berne,BE,Emmental District,46.9095,7.7618
3537,Eggiwil,Canton de Berne,BE,Emmental District,46.8757,7.7957
3538,Röthenbach im Emmental,Canton de Berne,BE,Emmental District,46.8542,7.7425
3543,Emmenmatt,Canton de Berne,BE,Emmental District,46.9487,7.7493
3550,Langnau im Emmental,Canton de Berne,BE,Emmental District,46.9394,7.7874
3551,Oberfrittenbach,Canton de Berne,BE,Emmental District,46.9297,7.7963
3552,Bärau,Canton de Berne,BE,Emmental District,46.9301,7.8114
3553,Gohl,Canton de Berne,BE,Emmental District,46.9554,7.8062
3555,Trubschachen,Canton de Berne,BE,Emmental District,46.9223,7.8452
3556,Trub,Canton de Berne,BE,Emmental District,46.9417,7.88
3557,Fankhaus (Trub),Canton de Berne,BE,Emmental District,46.9706,7.9174
3618,Süderen,Canton de Berne,BE,Emmental District,46.9885,7.7386
4564,Zielebach,Canton de Berne,BE,Emmental District,47.158,7.5729
6197,Schangnau,Canton de Berne,BE,Emmental District,46.8278,7.8599
1595,Clavaleyres,Canton de Berne,BE,Bern-Mittelland District,46.8991,7.0928
1738,Sangernboden,Canton de Berne,BE,Bern-Mittelland District,46.7133,7.3519
1797,Münchenwiler,Canton de Berne,BE,Bern-Mittelland District,46.9133,7.1256
3000,Bern,Canton de Berne,BE,Bern-Mittelland District,46.9476,7.4065
3000,Bern 94,Canton de Berne,BE,Bern-Mittelland District,46.9476,7.4065
3000,Bern 60 UPD,Canton de Berne,BE,Bern-Mittelland District,46.9476,7.4065
3000,Bern 65,Canton de Berne,BE,Bern-Mittelland District,46.9476,7.4065
3000,Bern 14,Canton de Berne,BE,Bern-Mittelland District,46.9476,7.4065
3000,Bern 9,Canton de Berne,BE,Bern-Mittelland District,46.9476,7.4065
3000,Bern 6,Canton de Berne,BE,Bern-Mittelland District,46.9476,7.4065
3000,Bern 5,Canton de Berne,BE,Bern-Mittelland District,46.9476,7.4065
3000,Bern 13,Canton de Berne,BE,Bern-Mittelland District,46.9476,7.4065
3000,Bern 31,Canton de Berne,BE,Bern-Mittelland District,46.9476,7.4065
3000,Bern 8,Canton de Berne,BE,Bern-Mittelland District,46.9476,7.4065
3000,Bern 22,Canton de Berne,BE,Bern-Mittelland District,46.9476,7.4065
3000,Bern 15,Canton de Berne,BE,Bern-Mittelland District,46.9476,7.4065
3001,Bern,Canton de Berne,BE,Bern-Mittelland District,46.9476,7.4065
3002,Bern PostFinance,Canton de Berne,BE,Bern-Mittelland District,46.9476,7.4065
3003,Bern,Canton de Berne,BE,Bern-Mittelland District,46.9476,7.4065
3004,Bern,Canton de Berne,BE,Bern-Mittelland District,46.9481,7.4474
3005,Bern,Canton de Berne,BE,Bern-Mittelland District,46.9481,7.4474
3006,Bern,Canton de Berne,BE,Bern-Mittelland District,46.9481,7.4474
3007,Bern,Canton de Berne,BE,Bern-Mittelland District,46.9481,7.4474
3008,Bern,Canton de Berne,BE,Bern-Mittelland District,46.9481,7.4474
3010,Bern,Canton de Berne,BE,Bern-Mittelland District,46.9481,7.4474
3011,Bern,Canton de Berne,BE,Bern-Mittelland District,46.9481,7.4474
3011,Bern,Canton de Berne,BE,Bern-Mittelland District,46.9481,7.4474
3012,Bern,Canton de Berne,BE,Bern-Mittelland District,46.9481,7.4474
3013,Bern,Canton de Berne,BE,Bern-Mittelland District,46.9481,7.4474
3014,Bern,Canton de Berne,BE,Bern-Mittelland District,46.9481,7.4474
3015,Bern,Canton de Berne,BE,Bern-Mittelland District,46.9481,7.4474
3018,Bern,Canton de Berne,BE,Bern-Mittelland District,46.9481,7.4474
3019,Bern,Canton de Berne,BE,Bern-Mittelland District,46.9481,7.4474
3020,Bern,Canton de Berne,BE,Bern-Mittelland District,46.9481,7.4474
3024,Bern,Canton de Berne,BE,Bern-Mittelland District,46.9476,7.4065
3027,Bern,Canton de Berne,BE,Bern-Mittelland District,46.9481,7.4474
3029,Bern,Canton de Berne,BE,Bern-Mittelland District,46.9476,7.4065
3030,Bern,Canton de Berne,BE,Bern-Mittelland District,46.9476,7.4065
3032,Hinterkappelen,Canton de Berne,BE,Bern-Mittelland District,46.9673,7.3779
3033,Wohlen b. Bern,Canton de Berne,BE,Bern-Mittelland District,46.9877,7.3481
3034,Murzelen,Canton de Berne,BE,Bern-Mittelland District,46.9831,7.3155
3037,Herrenschwanden,Canton de Berne,BE,Bern-Mittelland District,46.9776,7.4175
3038,Kirchlindach,Canton de Berne,BE,Bern-Mittelland District,46.9997,7.4173
3039,Bern PF OC,Canton de Berne,BE,Bern-Mittelland District,46.9476,7.4065
3040,Bern Verarb.zentr.,Canton de Berne,BE,Bern-Mittelland District,46.9476,7.4065
3041,Bern UBS,Canton de Berne,BE,Bern-Mittelland District,46.9476,7.4065
3042,Ortschwaben,Canton de Berne,BE,Bern-Mittelland District,46.9917,7.4018
3043,Uettligen,Canton de Berne,BE,Bern-Mittelland District,46.9873,7.3856
3044,Innerberg,Canton de Berne,BE,Bern-Mittelland District,46.9975,7.3073
3045,Meikirch,Canton de Berne,BE,Bern-Mittelland District,47.0072,7.3664
3046,Wahlendorf,Canton de Berne,BE,Bern-Mittelland District,47.0091,7.3388
3047,Bremgarten b. Bern,Canton de Berne,BE,Bern-Mittelland District,46.978,7.4385
3048,Worblaufen,Canton de Berne,BE,Bern-Mittelland District,46.9797,7.4581
3049,Säriswil,Canton de Berne,BE,Bern-Mittelland District,46.9918,7.3342
3050,Bern Swisscom,Canton de Berne,BE,Bern-Mittelland District,46.9476,7.4065
3052,Zollikofen,Canton de Berne,BE,Bern-Mittelland District,46.999,7.4581
3053,Münchenbuchsee,Canton de Berne,BE,Bern-Mittelland District,47.0218,7.4504
3053,Deisswil b. Münchenbuchsee,Canton de Berne,BE,Bern-Mittelland District,47.0372,7.4533
3053,Wiggiswil,Canton de Berne,BE,Bern-Mittelland District,47.0313,7.4709
3053,Diemerswil,Canton de Berne,BE,Bern-Mittelland District,47.0191,7.4245
3063,Ittigen,Canton de Berne,BE,Bern-Mittelland District,46.9743,7.4828
3065,Bolligen,Canton de Berne,BE,Bern-Mittelland District,46.9751,7.497
3066,Stettlen,Canton de Berne,BE,Bern-Mittelland District,46.9583,7.5251
3067,Boll,Canton de Berne,BE,Bern-Mittelland District,46.9542,7.5486
3068,Utzigen,Canton de Berne,BE,Bern-Mittelland District,46.9621,7.5657
3071,Ostermundigen KATA,Canton de Berne,BE,Bern-Mittelland District,46.9559,7.4956
3072,Ostermundigen,Canton de Berne,BE,Bern-Mittelland District,46.9569,7.4902
3073,Gümligen,Canton de Berne,BE,Bern-Mittelland District,46.9345,7.5093
3074,Muri b. Bern,Canton de Berne,BE,Bern-Mittelland District,46.9312,7.4866
3075,Rüfenacht BE,Canton de Berne,BE,Bern-Mittelland District,46.9308,7.5323
3075,Vielbringen b. Worb,Canton de Berne,BE,Bern-Mittelland District,46.9308,7.5323
3076,Worb,Canton de Berne,BE,Bern-Mittelland District,46.9298,7.5631
3077,Enggistein,Canton de Berne,BE,Bern-Mittelland District,46.9335,7.5979
3078,Richigen,Canton de Berne,BE,Bern-Mittelland District,46.9173,7.5842
3082,Schlosswil,Canton de Berne,BE,Bern-Mittelland District,46.9087,7.6117
3083,Trimstein,Canton de Berne,BE,Bern-Mittelland District,46.9048,7.5835
3084,Wabern,Canton de Berne,BE,Bern-Mittelland District,46.9299,7.4508
3085,Wabern Weihnachten,Canton de Berne,BE,Bern-Mittelland District,46.9043,7.3978
3086,Englisberg,Canton de Berne,BE,Bern-Mittelland District,46.8992,7.4693
3086,Zimmerwald,Canton de Berne,BE,Bern-Mittelland District,46.8809,7.4771
3087,Niedermuhlern,Canton de Berne,BE,Bern-Mittelland District,46.8576,7.4618
3088,Oberbütschel,Canton de Berne,BE,Bern-Mittelland District,46.8389,7.4641
3088,Rüeggisberg,Canton de Berne,BE,Bern-Mittelland District,46.8222,7.4389
3089,Hinterfultigen,Canton de Berne,BE,Bern-Mittelland District,46.8398,7.4009
3095,Spiegel b. Bern,Canton de Berne,BE,Bern-Mittelland District,46.9248,7.4361
3096,Oberbalm,Canton de Berne,BE,Bern-Mittelland District,46.8736,7.4028
3097,Liebefeld,Canton de Berne,BE,Bern-Mittelland District,46.9258,7.4145
3098,Schliern b. Köniz,Canton de Berne,BE,Bern-Mittelland District,46.9244,7.4146
3098,Köniz,Canton de Berne,BE,Bern-Mittelland District,46.9244,7.4146
3099,Rüti b. Riggisberg,Canton de Berne,BE,Bern-Mittelland District,46.7824,7.4602
3110,Münsingen,Canton de Berne,BE,Bern-Mittelland District,46.873,7.561
3111,Tägertschi,Canton de Berne,BE,Bern-Mittelland District,46.8841,7.5657
3112,Allmendingen b. Bern,Canton de Berne,BE,Bern-Mittelland District,46.9147,7.5244
3113,Rubigen,Canton de Berne,BE,Bern-Mittelland District,46.8987,7.5446
3114,Wichtrach,Canton de Berne,BE,Bern-Mittelland District,46.8501,7.5775
3115,Gerzensee,Canton de Berne,BE,Bern-Mittelland District,46.8402,7.545
3116,Kirchdorf BE,Canton de Berne,BE,Bern-Mittelland District,46.8209,7.5485
3116,Noflen BE,Canton de Berne,BE,Bern-Mittelland District,46.8056,7.5433
3116,Mühledorf BE,Canton de Berne,BE,Bern-Mittelland District,46.828,7.5299
3122,Kehrsatz,Canton de Berne,BE,Bern-Mittelland District,46.9103,7.471
3123,Belp,Canton de Berne,BE,Bern-Mittelland District,46.8913,7.4983
3124,Belpberg,Canton de Berne,BE,Bern-Mittelland District,46.8673,7.5213
3125,Toffen,Canton de Berne,BE,Bern-Mittelland District,46.8603,7.4922
3126,Kaufdorf,Canton de Berne,BE,Bern-Mittelland District,46.8403,7.4968
3126,Gelterfingen,Canton de Berne,BE,Bern-Mittelland District,46.8445,7.5156
3127,Mühlethurnen,Canton de Berne,BE,Bern-Mittelland District,46.8135,7.5088
3127,Lohnstorf,Canton de Berne,BE,Bern-Mittelland District,46.8077,7.5099
3128,Rümligen,Canton de Berne,BE,Bern-Mittelland District,46.8217,7.4772
3128,Kirchenthurnen,Canton de Berne,BE,Bern-Mittelland District,46.8238,7.5005
3132,Riggisberg,Canton de Berne,BE,Bern-Mittelland District,46.8103,7.4801
3144,Gasel,Canton de Berne,BE,Bern-Mittelland District,46.9022,7.4018
3145,Niederscherli,Canton de Berne,BE,Bern-Mittelland District,46.8851,7.3938
3147,Mittelhäusern,Canton de Berne,BE,Bern-Mittelland District,46.8778,7.3691
3148,Lanzenhäusern,Canton de Berne,BE,Bern-Mittelland District,46.8436,7.349
3150,Schwarzenburg,Canton de Berne,BE,Bern-Mittelland District,46.8181,7.3421
3152,Mamishaus,Canton de Berne,BE,Bern-Mittelland District,46.8101,7.3796
3153,Rüschegg Gambach,Canton de Berne,BE,Bern-Mittelland District,46.7789,7.3786
3154,Rüschegg Heubach,Canton de Berne,BE,Bern-Mittelland District,46.7832,7.4083
3155,Helgisried-Rohrbach,Canton de Berne,BE,Bern-Mittelland District,46.8176,7.4284
3156,Riffenmatt,Canton de Berne,BE,Bern-Mittelland District,46.7662,7.3529
3157,Milken,Canton de Berne,BE,Bern-Mittelland District,46.7937,7.359
3158,Guggisberg,Canton de Berne,BE,Bern-Mittelland District,46.7676,7.3295
3159,Riedstätt,Canton de Berne,BE,Bern-Mittelland District,46.7841,7.3194
3172,Niederwangen b. Bern,Canton de Berne,BE,Bern-Mittelland District,46.9043,7.3977
3173,Oberwangen b. Bern,Canton de Berne,BE,Bern-Mittelland District,46.9043,7.3977
3174,Thörishaus,Canton de Berne,BE,Bern-Mittelland District,46.8939,7.3513
3176,Neuenegg,Canton de Berne,BE,Bern-Mittelland District,46.8949,7.3047
3177,Laupen BE,Canton de Berne,BE,Bern-Mittelland District,46.9021,7.2397
3179,Kriechenwil,Canton de Berne,BE,Bern-Mittelland District,46.9097,7.2196
3183,Albligen,Canton de Berne,BE,Bern-Mittelland District,46.8523,7.3181
3202,Frauenkappelen,Canton de Berne,BE,Bern-Mittelland District,46.9542,7.3384
3203,Mühleberg,Canton de Berne,BE,Bern-Mittelland District,46.9547,7.261
3204,Rosshäusern,Canton de Berne,BE,Bern-Mittelland District,46.9332,7.2762
3205,Gümmenen,Canton de Berne,BE,Bern-Mittelland District,46.9456,7.2409
3206,Ferenbalm,Canton de Berne,BE,Bern-Mittelland District,46.9488,7.2112
3206,Gammen,Canton de Berne,BE,Bern-Mittelland District,46.9208,7.228
3206,Rizenbach,Canton de Berne,BE,Bern-Mittelland District,46.944,7.2232
3206,Biberen,Canton de Berne,BE,Bern-Mittelland District,46.9404,7.213
3207,Golaten,Canton de Berne,BE,Bern-Mittelland District,46.9844,7.2352
3207,Wileroltigen,Canton de Berne,BE,Bern-Mittelland District,46.9709,7.2392
3208,Gurbrü,Canton de Berne,BE,Bern-Mittelland District,46.9648,7.2153
3302,Moosseedorf,Canton de Berne,BE,Bern-Mittelland District,47.0168,7.4839
3303,Jegenstorf,Canton de Berne,BE,Bern-Mittelland District,47.048,7.5079
3303,Münchringen,Canton de Berne,BE,Bern-Mittelland District,47.0477,7.5247
3303,Ballmoos,Canton de Berne,BE,Bern-Mittelland District,47.0405,7.4759
3303,Zuzwil BE,Canton de Berne,BE,Bern-Mittelland District,47.0511,7.4681
3305,Scheunen,Canton de Berne,BE,Bern-Mittelland District,47.0693,7.4583
3305,Iffwil,Canton de Berne,BE,Bern-Mittelland District,47.064,7.4829
3306,Etzelkofen,Canton de Berne,BE,Bern-Mittelland District,47.0845,7.4806
3308,Grafenried,Canton de Berne,BE,Bern-Mittelland District,47.0765,7.5147
3309,Zauggenried,Canton de Berne,BE,Bern-Mittelland District,47.0727,7.5355
3312,Fraubrunnen,Canton de Berne,BE,Bern-Mittelland District,47.0862,7.5273
3313,Büren zum Hof,Canton de Berne,BE,Bern-Mittelland District,47.0977,7.5135
3314,Schalunen,Canton de Berne,BE,Bern-Mittelland District,47.1105,7.5263
3317,Limpach,Canton de Berne,BE,Bern-Mittelland District,47.1077,7.4979
3317,Mülchi,Canton de Berne,BE,Bern-Mittelland District,47.1018,7.4736
3321,Schönbühl EKZ,Canton de Berne,BE,Bern-Mittelland District,47.0168,7.4839
3322,Mattstetten,Canton de Berne,BE,Bern-Mittelland District,47.0282,7.5189
3322,Urtenen-Schönbühl,Canton de Berne,BE,Bern-Mittelland District,47.0209,7.4999
3323,Bäriswil BE,Canton de Berne,BE,Bern-Mittelland District,47.0195,7.5271
3434,Obergoldbach,Canton de Berne,BE,Bern-Mittelland District,46.962,7.6739
3434,Landiswil,Canton de Berne,BE,Bern-Mittelland District,46.9582,7.6803
3503,Gysenstein,Canton de Berne,BE,Bern-Mittelland District,46.8915,7.5924
3504,Oberhünigen,Canton de Berne,BE,Bern-Mittelland District,46.881,7.6598
3504,Niederhünigen,Canton de Berne,BE,Bern-Mittelland District,46.879,7.6386
3506,Grosshöchstetten,Canton de Berne,BE,Bern-Mittelland District,46.9067,7.6378
3507,Biglen,Canton de Berne,BE,Bern-Mittelland District,46.9263,7.6251
3508,Arni BE,Canton de Berne,BE,Bern-Mittelland District,46.9352,7.6647
3510,Freimettigen,Canton de Berne,BE,Bern-Mittelland District,46.8664,7.6311
3510,Konolfingen,Canton de Berne,BE,Bern-Mittelland District,46.8791,7.6201
3510,Häutligen,Canton de Berne,BE,Bern-Mittelland District,46.8576,7.6067
3512,Walkringen,Canton de Berne,BE,Bern-Mittelland District,46.9486,7.6204
3513,Bigenthal,Canton de Berne,BE,Bern-Mittelland District,46.9661,7.624
3531,Oberthal,Canton de Berne,BE,Bern-Mittelland District,46.9184,7.6781
3532,Zäziwil,Canton de Berne,BE,Bern-Mittelland District,46.902,7.6618
3532,Mirchel,Canton de Berne,BE,Bern-Mittelland District,46.8946,7.6499
3533,Bowil,Canton de Berne,BE,Bern-Mittelland District,46.893,7.6976
3629,Jaberg,Canton de Berne,BE,Bern-Mittelland District,46.818,7.5692
3629,Kiesen,Canton de Berne,BE,Bern-Mittelland District,46.8196,7.584
3629,Oppligen,Canton de Berne,BE,Bern-Mittelland District,46.8184,7.6007
3671,Brenzikofen,Canton de Berne,BE,Bern-Mittelland District,46.8181,7.6171
3671,Herbligen,Canton de Berne,BE,Bern-Mittelland District,46.8299,7.6063
3672,Oberdiessbach,Canton de Berne,BE,Bern-Mittelland District,46.8395,7.6196
3672,Aeschlen b. Oberdiessbach,Canton de Berne,BE,Bern-Mittelland District,46.8395,7.6196
3673,Linden,Canton de Berne,BE,Bern-Mittelland District,46.8487,7.6749
3674,Bleiken b. Oberdiessbach,Canton de Berne,BE,Bern-Mittelland District,46.8341,7.6295
3600,Thun,Canton de Berne,BE,Thun District,46.7512,7.6217
3602,Thun,Canton de Berne,BE,Thun District,46.7466,7.6222
3603,Thun,Canton de Berne,BE,Thun District,46.7512,7.6217
3604,Thun,Canton de Berne,BE,Thun District,46.7512,7.6217
3607,Thun,Canton de Berne,BE,Thun District,46.7466,7.6222
3608,Thun,Canton de Berne,BE,Thun District,46.7512,7.6217
3609,Thun,Canton de Berne,BE,Thun District,46.7466,7.6222
3612,Steffisburg,Canton de Berne,BE,Thun District,46.7781,7.6325
3613,Steffisburg,Canton de Berne,BE,Thun District,46.7781,7.6325
3614,Unterlangenegg,Canton de Berne,BE,Thun District,46.7993,7.7012
3615,Heimenschwand,Canton de Berne,BE,Thun District,46.8287,7.6947
3616,Schwarzenegg,Canton de Berne,BE,Thun District,46.7953,7.7168
3617,Fahrni b. Thun,Canton de Berne,BE,Thun District,46.794,7.655
3619,Eriz,Canton de Berne,BE,Thun District,46.7877,7.771
3619,Innereriz,Canton de Berne,BE,Thun District,46.7883,7.8239
3622,Homberg b. Thun,Canton de Berne,BE,Thun District,46.7733,7.6768
3623,Horrenbach,Canton de Berne,BE,Thun District,46.7748,7.7824
3623,Teuffenthal b. Thun,Canton de Berne,BE,Thun District,46.7658,7.7127
3623,Buchen BE,Canton de Berne,BE,Thun District,46.7748,7.7824
3624,Goldiwil (Thun),Canton de Berne,BE,Thun District,46.764,7.6706
3624,Schwendibach,Canton de Berne,BE,Thun District,46.7699,7.6619
3625,Heiligenschwendi,Canton de Berne,BE,Thun District,46.7511,7.6839
3626,Hünibach,Canton de Berne,BE,Thun District,46.7462,7.6503
3627,Heimberg,Canton de Berne,BE,Thun District,46.7948,7.6043
3628,Uttigen,Canton de Berne,BE,Thun District,46.7944,7.5779
3631,Höfen b. Thun,Canton de Berne,BE,Thun District,46.7101,7.5636
3632,Niederstocken,Canton de Berne,BE,Thun District,46.7106,7.5721
3632,Oberstocken,Canton de Berne,BE,Thun District,46.7175,7.5547
3633,Amsoldingen,Canton de Berne,BE,Thun District,46.7275,7.5825
3634,Thierachern,Canton de Berne,BE,Thun District,46.7532,7.5744
3635,Uebeschi,Canton de Berne,BE,Thun District,46.7395,7.5473
3636,Längenbühl,Canton de Berne,BE,Thun District,46.7647,7.5233
3636,Forst b. Längenbühl,Canton de Berne,BE,Thun District,46.7647,7.5233
3638,Pohlern,Canton de Berne,BE,Thun District,46.7252,7.5353
3638,Blumenstein,Canton de Berne,BE,Thun District,46.7421,7.5214
3645,Zwieselberg,Canton de Berne,BE,Thun District,46.7101,7.6167
3647,Reutigen,Canton de Berne,BE,Thun District,46.6936,7.621
3652,Hilterfingen,Canton de Berne,BE,Thun District,46.7352,7.6618
3653,Oberhofen am Thunersee,Canton de Berne,BE,Thun District,46.7315,7.669
3654,Gunten,Canton de Berne,BE,Thun District,46.7119,7.7024
3655,Sigriswil,Canton de Berne,BE,Thun District,46.7166,7.7133
3656,Ringoldswil,Canton de Berne,BE,Thun District,46.7347,7.6955
3656,Aeschlen ob Gunten,Canton de Berne,BE,Thun District,46.72,7.7006
3656,Tschingel ob Gunten,Canton de Berne,BE,Thun District,46.7273,7.6981
3657,Schwanden (Sigriswil),Canton de Berne,BE,Thun District,46.7364,7.7178
3658,Merligen,Canton de Berne,BE,Thun District,46.6975,7.7387
3661,Uetendorf,Canton de Berne,BE,Thun District,46.7739,7.5725
3662,Seftigen,Canton de Berne,BE,Thun District,46.7876,7.5394
3663,Gurzelen,Canton de Berne,BE,Thun District,46.7764,7.5426
3664,Burgistein,Canton de Berne,BE,Thun District,46.7846,7.4999
3665,Wattenwil,Canton de Berne,BE,Thun District,46.7697,7.5083
1657,Abländschen,Canton de Berne,BE,Obersimmental-Saanen District,46.5724,7.2892
3766,Boltigen,Canton de Berne,BE,Obersimmental-Saanen District,46.6289,7.3911
3770,Zweisimmen,Canton de Berne,BE,Obersimmental-Saanen District,46.5554,7.373
3771,Blankenburg,Canton de Berne,BE,Obersimmental-Saanen District,46.5333,7.3833
3772,St. Stephan,Canton de Berne,BE,Obersimmental-Saanen District,46.5083,7.3956
3773,Matten (St. Stephan),Canton de Berne,BE,Obersimmental-Saanen District,46.4959,7.4245
3775,Lenk im Simmental,Canton de Berne,BE,Obersimmental-Saanen District,46.4583,7.443
3776,Oeschseite,Canton de Berne,BE,Obersimmental-Saanen District,46.5306,7.3511
3777,Saanenmöser,Canton de Berne,BE,Obersimmental-Saanen District,46.5164,7.3094
3778,Schönried,Canton de Berne,BE,Obersimmental-Saanen District,46.5039,7.2888
3780,Gstaad,Canton de Berne,BE,Obersimmental-Saanen District,46.4722,7.2869
3781,Turbach,Canton de Berne,BE,Obersimmental-Saanen District,46.4786,7.3312
3782,Lauenen b. Gstaad,Canton de Berne,BE,Obersimmental-Saanen District,46.4244,7.3217
3783,Grund b. Gstaad,Canton de Berne,BE,Obersimmental-Saanen District,46.4516,7.2778
3784,Feutersoey,Canton de Berne,BE,Obersimmental-Saanen District,46.4156,7.271
3785,Gsteig b. Gstaad,Canton de Berne,BE,Obersimmental-Saanen District,46.3859,7.2675
3792,Saanen,Canton de Berne,BE,Obersimmental-Saanen District,46.4894,7.26
3645,Gwatt (Thun),Canton de Berne,BE,Frutigen-Niedersimmental District,46.7204,7.6223
3646,Einigen,Canton de Berne,BE,Frutigen-Niedersimmental District,46.708,7.6483
3700,Spiez,Canton de Berne,BE,Frutigen-Niedersimmental District,46.6847,7.6911
3702,Hondrich,Canton de Berne,BE,Frutigen-Niedersimmental District,46.672,7.6811
3703,Aeschiried,Canton de Berne,BE,Frutigen-Niedersimmental District,46.6462,7.7258
3703,Aeschi b. Spiez,Canton de Berne,BE,Frutigen-Niedersimmental District,46.6462,7.7258
3704,Krattigen,Canton de Berne,BE,Frutigen-Niedersimmental District,46.6614,7.7278
3705,Faulensee,Canton de Berne,BE,Frutigen-Niedersimmental District,46.6742,7.7023
3711,Emdthal,Canton de Berne,BE,Frutigen-Niedersimmental District,46.6543,7.685
3711,Mülenen,Canton de Berne,BE,Frutigen-Niedersimmental District,46.6394,7.6941
3713,Reichenbach im Kandertal,Canton de Berne,BE,Frutigen-Niedersimmental District,46.6254,7.6936
3714,Frutigen,Canton de Berne,BE,Frutigen-Niedersimmental District,46.5872,7.6494
3714,Wengi b. Frutigen,Canton de Berne,BE,Frutigen-Niedersimmental District,46.5753,7.7369
3715,Adelboden,Canton de Berne,BE,Frutigen-Niedersimmental District,46.4914,7.5603
3716,Kandergrund,Canton de Berne,BE,Frutigen-Niedersimmental District,46.5621,7.659
3717,Blausee-Mitholz,Canton de Berne,BE,Frutigen-Niedersimmental District,46.5332,7.6641
3718,Kandersteg,Canton de Berne,BE,Frutigen-Niedersimmental District,46.4947,7.6733
3722,Scharnachtal,Canton de Berne,BE,Frutigen-Niedersimmental District,46.6162,7.698
3723,Kiental,Canton de Berne,BE,Frutigen-Niedersimmental District,46.5877,7.7245
3724,Ried (Frutigen),Canton de Berne,BE,Frutigen-Niedersimmental District,46.5668,7.6172
3725,Achseten,Canton de Berne,BE,Frutigen-Niedersimmental District,46.5277,7.5967
3752,Wimmis,Canton de Berne,BE,Frutigen-Niedersimmental District,46.6759,7.6397
3753,Oey,Canton de Berne,BE,Frutigen-Niedersimmental District,46.6592,7.5768
3754,Diemtigen,Canton de Berne,BE,Frutigen-Niedersimmental District,46.6493,7.5648
3755,Horboden,Canton de Berne,BE,Frutigen-Niedersimmental District,46.6316,7.5621
3756,Zwischenflüh,Canton de Berne,BE,Frutigen-Niedersimmental District,46.6072,7.5155
3757,Schwenden im Diemtigtal,Canton de Berne,BE,Frutigen-Niedersimmental District,46.5801,7.4906
3758,Latterbach,Canton de Berne,BE,Frutigen-Niedersimmental District,46.6656,7.5768
3762,Erlenbach im Simmental,Canton de Berne,BE,Frutigen-Niedersimmental District,46.6602,7.5545
3763,Därstetten,Canton de Berne,BE,Frutigen-Niedersimmental District,46.6595,7.4911
3764,Weissenburg,Canton de Berne,BE,Frutigen-Niedersimmental District,46.6582,7.476
3765,Oberwil im Simmental,Canton de Berne,BE,Frutigen-Niedersimmental District,46.6569,7.4351
3706,Leissigen,Canton de Berne,BE,Interlaken-Oberhasli District,46.6546,7.7755
3707,Därligen,Canton de Berne,BE,Interlaken-Oberhasli District,46.6618,7.8081
3800,Matten b. Interlaken,Canton de Berne,BE,Interlaken-Oberhasli District,46.6783,7.8689
3800,Sundlauenen,Canton de Berne,BE,Interlaken-Oberhasli District,46.6863,7.7931
3800,Interlaken,Canton de Berne,BE,Interlaken-Oberhasli District,46.652,7.9337
3800,Unterseen,Canton de Berne,BE,Interlaken-Oberhasli District,46.6853,7.8472
3800,Interlaken,Canton de Berne,BE,Interlaken-Oberhasli District,46.6839,7.8664
3802,Interlaken Ost,Canton de Berne,BE,Interlaken-Oberhasli District,46.6871,7.8649
3803,Beatenberg,Canton de Berne,BE,Interlaken-Oberhasli District,46.699,7.7943
3804,Habkern,Canton de Berne,BE,Interlaken-Oberhasli District,46.7264,7.863
3805,Goldswil b. Interlaken,Canton de Berne,BE,Interlaken-Oberhasli District,46.6967,7.8781
3806,Bönigen b. Interlaken,Canton de Berne,BE,Interlaken-Oberhasli District,46.6874,7.8935
3807,Iseltwald,Canton de Berne,BE,Interlaken-Oberhasli District,46.7108,7.9642
3812,Wilderswil,Canton de Berne,BE,Interlaken-Oberhasli District,46.6637,7.8617
3813,Saxeten,Canton de Berne,BE,Interlaken-Oberhasli District,46.6366,7.8309
3814,Gsteigwiler,Canton de Berne,BE,Interlaken-Oberhasli District,46.6554,7.8719
3815,Gündlischwand,Canton de Berne,BE,Interlaken-Oberhasli District,46.6322,7.9127
3815,Zweilütschinen,Canton de Berne,BE,Interlaken-Oberhasli District,46.6314,7.9015
3816,Burglauenen,Canton de Berne,BE,Interlaken-Oberhasli District,46.6372,7.9764
3816,Lütschental,Canton de Berne,BE,Interlaken-Oberhasli District,46.6378,7.947
3818,Grindelwald,Canton de Berne,BE,Interlaken-Oberhasli District,46.624,8.036
3822,Isenfluh,Canton de Berne,BE,Interlaken-Oberhasli District,46.6198,7.8948
3822,Lauterbrunnen,Canton de Berne,BE,Interlaken-Oberhasli District,46.5931,7.9094
3823,Wengen,Canton de Berne,BE,Interlaken-Oberhasli District,46.606,7.9201
3823,Eigergletscher,Canton de Berne,BE,Interlaken-Oberhasli District,46.5749,7.9738
3823,Kleine Scheidegg,Canton de Berne,BE,Interlaken-Oberhasli District,46.5861,7.9613
3824,Stechelberg,Canton de Berne,BE,Interlaken-Oberhasli District,46.5431,7.9015
3825,Mürren,Canton de Berne,BE,Interlaken-Oberhasli District,46.5588,7.8929
3826,Gimmelwald,Canton de Berne,BE,Interlaken-Oberhasli District,46.5455,7.8914
3852,Ringgenberg BE,Canton de Berne,BE,Interlaken-Oberhasli District,46.7011,7.8944
3853,Niederried b. Interlaken,Canton de Berne,BE,Interlaken-Oberhasli District,46.7187,7.9324
3854,Oberried am Brienzersee,Canton de Berne,BE,Interlaken-Oberhasli District,46.7363,7.9593
3855,Brienz BE,Canton de Berne,BE,Interlaken-Oberhasli District,46.7545,8.0385
3855,Schwanden b. Brienz,Canton de Berne,BE,Interlaken-Oberhasli District,46.7711,8.0557
3855,Axalp,Canton de Berne,BE,Interlaken-Oberhasli District,46.7252,8.0382
3856,Brienzwiler,Canton de Berne,BE,Interlaken-Oberhasli District,46.7508,8.1014
3857,Unterbach BE,Canton de Berne,BE,Interlaken-Oberhasli District,46.7374,8.1101
3858,Hofstetten b. Brienz,Canton de Berne,BE,Interlaken-Oberhasli District,46.7535,8.0749
3860,Rosenlaui,Canton de Berne,BE,Interlaken-Oberhasli District,46.6796,8.1539
3860,Meiringen,Canton de Berne,BE,Interlaken-Oberhasli District,46.7271,8.1872
3860,Schattenhalb,Canton de Berne,BE,Interlaken-Oberhasli District,46.719,8.1907
3860,Brünig,Canton de Berne,BE,Interlaken-Oberhasli District,46.7186,8.1342
3862,Innertkirchen,Canton de Berne,BE,Interlaken-Oberhasli District,46.7047,8.2288
3863,Gadmen,Canton de Berne,BE,Interlaken-Oberhasli District,46.7373,8.3522
3864,Guttannen,Canton de Berne,BE,Interlaken-Oberhasli District,46.6551,8.2895
6083,Hasliberg Hohfluh,Canton de Berne,BE,Interlaken-Oberhasli District,46.7526,8.1705
6084,Hasliberg Wasserwendi,Canton de Berne,BE,Interlaken-Oberhasli District,46.7471,8.1994
6085,Hasliberg Goldern,Canton de Berne,BE,Interlaken-Oberhasli District,46.7408,8.2001
6086,Hasliberg Reuti,Canton de Berne,BE,Interlaken-Oberhasli District,46.7319,8.2107
4040,Basel,Kanton Basel-Landschaft,BL,Bezirk Arlesheim,47.5186,7.6174
4042,Basel PF OC,Kanton Basel-Landschaft,BL,Bezirk Arlesheim,47.5186,7.6174
4101,Bruderholz,Kanton Basel-Landschaft,BL,Bezirk Arlesheim,47.5366,7.5679
4102,Binningen,Kanton Basel-Landschaft,BL,Bezirk Arlesheim,47.5402,7.5693
4103,Bottmingen,Kanton Basel-Landschaft,BL,Bezirk Arlesheim,47.5234,7.5721
4104,Oberwil BL,Kanton Basel-Landschaft,BL,Bezirk Arlesheim,47.5141,7.5579
4105,Biel-Benken BL,Kanton Basel-Landschaft,BL,Bezirk Arlesheim,47.5078,7.5258
4106,Therwil,Kanton Basel-Landschaft,BL,Bezirk Arlesheim,47.5012,7.5529
4107,Ettingen,Kanton Basel-Landschaft,BL,Bezirk Arlesheim,47.4827,7.5498
4123,Allschwil,Kanton Basel-Landschaft,BL,Bezirk Arlesheim,47.5507,7.536
4124,Schönenbuch,Kanton Basel-Landschaft,BL,Bezirk Arlesheim,47.5385,7.5057
4127,Birsfelden,Kanton Basel-Landschaft,BL,Bezirk Arlesheim,47.5529,7.6232
4132,Muttenz,Kanton Basel-Landschaft,BL,Bezirk Arlesheim,47.5227,7.6451
4142,Münchenstein,Kanton Basel-Landschaft,BL,Bezirk Arlesheim,47.5185,7.6097
4144,Arlesheim,Kanton Basel-Landschaft,BL,Bezirk Arlesheim,47.4941,7.6198
4147,Aesch BL,Kanton Basel-Landschaft,BL,Bezirk Arlesheim,47.471,7.5973
4148,Pfeffingen,Kanton Basel-Landschaft,BL,Bezirk Arlesheim,47.4598,7.5898
4153,Reinach BL,Kanton Basel-Landschaft,BL,Bezirk Arlesheim,47.497,7.5917
2814,Roggenburg,Kanton Basel-Landschaft,BL,Bezirk Laufen,47.431,7.3406
4117,Burg im Leimental,Kanton Basel-Landschaft,BL,Bezirk Laufen,47.4596,7.4381
4202,Duggingen,Kanton Basel-Landschaft,BL,Bezirk Laufen,47.4518,7.6051
4203,Grellingen,Kanton Basel-Landschaft,BL,Bezirk Laufen,47.4423,7.5891
4222,Zwingen,Kanton Basel-Landschaft,BL,Bezirk Laufen,47.4382,7.5303
4223,Blauen,Kanton Basel-Landschaft,BL,Bezirk Laufen,47.4502,7.5185
4224,Nenzlingen,Kanton Basel-Landschaft,BL,Bezirk Laufen,47.4474,7.557
4225,Brislach,Kanton Basel-Landschaft,BL,Bezirk Laufen,47.4176,7.5434
4242,Laufen,Kanton Basel-Landschaft,BL,Bezirk Laufen,47.4219,7.4995
4243,Dittingen,Kanton Basel-Landschaft,BL,Bezirk Laufen,47.442,7.4962
4244,Röschenz,Kanton Basel-Landschaft,BL,Bezirk Laufen,47.4237,7.4802
4246,Wahlen b. Laufen,Kanton Basel-Landschaft,BL,Bezirk Laufen,47.398,7.5115
4253,Liesberg,Kanton Basel-Landschaft,BL,Bezirk Laufen,47.404,7.4279
4254,Liesberg Dorf,Kanton Basel-Landschaft,BL,Bezirk Laufen,47.4033,7.4341
4133,Pratteln,Kanton Basel-Landschaft,BL,Bezirk Liestal,47.5207,7.6936
4302,Augst BL,Kanton Basel-Landschaft,BL,Bezirk Liestal,47.5356,7.7147
4304,Giebenach,Kanton Basel-Landschaft,BL,Bezirk Liestal,47.523,7.7397
4402,Frenkendorf,Kanton Basel-Landschaft,BL,Bezirk Liestal,47.5069,7.7165
4410,Liestal,Kanton Basel-Landschaft,BL,Bezirk Liestal,47.4846,7.7345
4411,Seltisberg,Kanton Basel-Landschaft,BL,Bezirk Liestal,47.4595,7.7173
4414,Füllinsdorf,Kanton Basel-Landschaft,BL,Bezirk Liestal,47.5069,7.7313
4415,Lausen,Kanton Basel-Landschaft,BL,Bezirk Liestal,47.4714,7.7603
4416,Bubendorf,Kanton Basel-Landschaft,BL,Bezirk Liestal,47.4459,7.7376
4417,Ziefen,Kanton Basel-Landschaft,BL,Bezirk Liestal,47.4292,7.7053
4419,Lupsingen,Kanton Basel-Landschaft,BL,Bezirk Liestal,47.4463,7.6961
4422,Arisdorf,Kanton Basel-Landschaft,BL,Bezirk Liestal,47.5132,7.7651
4423,Hersberg,Kanton Basel-Landschaft,BL,Bezirk Liestal,47.4921,7.7831
4433,Ramlinsburg,Kanton Basel-Landschaft,BL,Bezirk Liestal,47.4491,7.7696
4441,Thürnen,Kanton Basel-Landschaft,BL,Bezirk Sissach,47.4531,7.8288
4442,Diepflingen,Kanton Basel-Landschaft,BL,Bezirk Sissach,47.4444,7.8364
4443,Wittinsburg,Kanton Basel-Landschaft,BL,Bezirk Sissach,47.4252,7.8413
4444,Rümlingen,Kanton Basel-Landschaft,BL,Bezirk Sissach,47.424,7.8479
4445,Häfelfingen,Kanton Basel-Landschaft,BL,Bezirk Sissach,47.4149,7.866
4446,Buckten,Kanton Basel-Landschaft,BL,Bezirk Sissach,47.4099,7.8448
4447,Känerkinden,Kanton Basel-Landschaft,BL,Bezirk Sissach,47.4119,7.8372
4448,Läufelfingen,Kanton Basel-Landschaft,BL,Bezirk Sissach,47.3946,7.8558
4450,Sissach,Kanton Basel-Landschaft,BL,Bezirk Sissach,47.4641,7.8089
4451,Wintersingen,Kanton Basel-Landschaft,BL,Bezirk Sissach,47.4941,7.8241
4452,Itingen,Kanton Basel-Landschaft,BL,Bezirk Sissach,47.4665,7.785
4453,Nusshof,Kanton Basel-Landschaft,BL,Bezirk Sissach,47.4914,7.8007
4455,Zunzgen,Kanton Basel-Landschaft,BL,Bezirk Sissach,47.4492,7.8079
4456,Tenniken,Kanton Basel-Landschaft,BL,Bezirk Sissach,47.4371,7.8115
4460,Gelterkinden,Kanton Basel-Landschaft,BL,Bezirk Sissach,47.465,7.8517
4461,Böckten,Kanton Basel-Landschaft,BL,Bezirk Sissach,47.4654,7.8326
4462,Rickenbach BL,Kanton Basel-Landschaft,BL,Bezirk Sissach,47.486,7.8474
4463,Buus,Kanton Basel-Landschaft,BL,Bezirk Sissach,47.5054,7.8648
4464,Maisprach,Kanton Basel-Landschaft,BL,Bezirk Sissach,47.5246,7.847
4465,Hemmiken,Kanton Basel-Landschaft,BL,Bezirk Sissach,47.4888,7.8938
4466,Ormalingen,Kanton Basel-Landschaft,BL,Bezirk Sissach,47.4694,7.8725
4467,Rothenfluh,Kanton Basel-Landschaft,BL,Bezirk Sissach,47.4626,7.9163
4469,Anwil,Kanton Basel-Landschaft,BL,Bezirk Sissach,47.453,7.9419
4492,Tecknau,Kanton Basel-Landschaft,BL,Bezirk Sissach,47.4513,7.884
4493,Wenslingen,Kanton Basel-Landschaft,BL,Bezirk Sissach,47.4407,7.9075
4494,Oltingen,Kanton Basel-Landschaft,BL,Bezirk Sissach,47.4302,7.9372
4495,Zeglingen,Kanton Basel-Landschaft,BL,Bezirk Sissach,47.4163,7.9048
4496,Kilchberg BL,Kanton Basel-Landschaft,BL,Bezirk Sissach,47.4249,7.894
4497,Rünenberg,Kanton Basel-Landschaft,BL,Bezirk Sissach,47.4348,7.8829
4207,Bretzwil,Kanton Basel-Landschaft,BL,Bezirk Waldenburg,47.3978,7.6522
4418,Reigoldswil,Kanton Basel-Landschaft,BL,Bezirk Waldenburg,47.3982,7.6872
4424,Arboldswil,Kanton Basel-Landschaft,BL,Bezirk Waldenburg,47.4144,7.7176
4425,Titterten,Kanton Basel-Landschaft,BL,Bezirk Waldenburg,47.4021,7.7162
4426,Lauwil,Kanton Basel-Landschaft,BL,Bezirk Waldenburg,47.39,7.6749
4431,Bennwil,Kanton Basel-Landschaft,BL,Bezirk Waldenburg,47.4032,7.7799
4432,Lampenberg,Kanton Basel-Landschaft,BL,Bezirk Waldenburg,47.4256,7.7588
4434,Hölstein,Kanton Basel-Landschaft,BL,Bezirk Waldenburg,47.4251,7.7714
4435,Niederdorf,Kanton Basel-Landschaft,BL,Bezirk Waldenburg,47.4095,7.7496
4436,Oberdorf BL,Kanton Basel-Landschaft,BL,Bezirk Waldenburg,47.3931,7.7512
4436,Liedertswil,Kanton Basel-Landschaft,BL,Bezirk Waldenburg,47.3905,7.7207
4437,Waldenburg,Kanton Basel-Landschaft,BL,Bezirk Waldenburg,47.3833,7.75
4438,Langenbruck,Kanton Basel-Landschaft,BL,Bezirk Waldenburg,47.3492,7.768
4457,Diegten,Kanton Basel-Landschaft,BL,Bezirk Waldenburg,47.4138,7.8109
4458,Eptingen,Kanton Basel-Landschaft,BL,Bezirk Waldenburg,47.3847,7.819
4000,Basel,Kanton Basel-Stadt,BS,Basel-Stadt,47.5577,7.5936
4001,Basel,Kanton Basel-Stadt,BS,Basel-Stadt,47.5584,7.5733
4002,Basel,Kanton Basel-Stadt,BS,Basel-Stadt,47.5577,7.5936
4005,Basel,Kanton Basel-Stadt,BS,Basel-Stadt,47.5577,7.5936
4009,Basel,Kanton Basel-Stadt,BS,Basel-Stadt,47.5577,7.5936
4010,Basel,Kanton Basel-Stadt,BS,Basel-Stadt,47.5577,7.5936
4018,Basel,Kanton Basel-Stadt,BS,Basel-Stadt,47.5577,7.5936
4019,Basel,Kanton Basel-Stadt,BS,Basel-Stadt,47.5577,7.5936
4020,Basel,Kanton Basel-Stadt,BS,Basel-Stadt,47.5577,7.5936
4030,Basel,Kanton Basel-Stadt,BS,Basel-Stadt,47.5577,7.5936
4031,Basel,Kanton Basel-Stadt,BS,Basel-Stadt,47.5577,7.5936
4039,Basel,Kanton Basel-Stadt,BS,Basel-Stadt,47.5577,7.5936
4041,Basel,Kanton Basel-Stadt,BS,Basel-Stadt,47.5577,7.5936
4051,Basel,Kanton Basel-Stadt,BS,Basel-Stadt,47.5584,7.5733
4052,Basel,Kanton Basel-Stadt,BS,Basel-Stadt,47.5584,7.5733
4052,Basel,Kanton Basel-Stadt,BS,Basel-Stadt,47.5584,7.5733
4053,Basel,Kanton Basel-Stadt,BS,Basel-Stadt,47.5584,7.5733
4054,Basel,Kanton Basel-Stadt,BS,Basel-Stadt,47.5584,7.5733
4055,Basel,Kanton Basel-Stadt,BS,Basel-Stadt,47.5584,7.5733
4056,Basel,Kanton Basel-Stadt,BS,Basel-Stadt,47.5584,7.5733
4057,Basel,Kanton Basel-Stadt,BS,Basel-Stadt,47.5584,7.5733
4058,Basel,Kanton Basel-Stadt,BS,Basel-Stadt,47.5584,7.5733
4059,Basel,Kanton Basel-Stadt,BS,Basel-Stadt,47.5584,7.5733
4070,Basel,Kanton Basel-Stadt,BS,Basel-Stadt,47.5577,7.5936
4075,Basel,Kanton Basel-Stadt,BS,Basel-Stadt,47.5577,7.5936
4089,Basel SPI GLS,Kanton Basel-Stadt,BS,Basel-Stadt,47.5577,7.5936
4089,Basel,Kanton Basel-Stadt,BS,Basel-Stadt,47.5577,7.5936
4091,Basel,Kanton Basel-Stadt,BS,Basel-Stadt,47.5577,7.5936
4125,Riehen,Kanton Basel-Stadt,BS,Basel-Stadt,47.5788,7.6468
4126,Bettingen,Kanton Basel-Stadt,BS,Basel-Stadt,47.5704,7.6643
1410,Prévondavaux,Canton de Fribourg,FR,Broye District,46.7296,6.7956
1468,Cheyres,Canton de Fribourg,FR,Broye District,46.8144,6.7868
1470,Estavayer-le-Lac,Canton de Fribourg,FR,Broye District,46.8488,6.8465
1470,Lully FR,Canton de Fribourg,FR,Broye District,46.834,6.8453
1470,Bollion,Canton de Fribourg,FR,Broye District,46.8192,6.828
1470,Seiry,Canton de Fribourg,FR,Broye District,46.8141,6.8313
1473,Font,Canton de Fribourg,FR,Broye District,46.8375,6.8221
1473,Châtillon FR,Canton de Fribourg,FR,Broye District,46.8305,6.8315
1474,Châbles FR,Canton de Fribourg,FR,Broye District,46.8245,6.8108
1475,Montbrelloz,Canton de Fribourg,FR,Broye District,46.8548,6.8876
1475,Autavaux,Canton de Fribourg,FR,Broye District,46.8666,6.8782
1475,Forel FR,Canton de Fribourg,FR,Broye District,46.8774,6.8891
1482,Cugy FR,Canton de Fribourg,FR,Broye District,46.8148,6.8889
1483,Frasses,Canton de Fribourg,FR,Broye District,46.8282,6.8644
1483,Vesin,Canton de Fribourg,FR,Broye District,46.8105,6.8752
1483,Montet (Broye),Canton de Fribourg,FR,Broye District,46.8177,6.8679
1484,Granges-de-Vesin,Canton de Fribourg,FR,Broye District,46.7989,6.8503
1484,Aumont,Canton de Fribourg,FR,Broye District,46.7989,6.8503
1485,Nuvilly,Canton de Fribourg,FR,Broye District,46.7834,6.8278
1486,Vuissens,Canton de Fribourg,FR,Broye District,46.7334,6.7662
1489,Murist,Canton de Fribourg,FR,Broye District,46.7902,6.8071
1527,Villeneuve FR,Canton de Fribourg,FR,Broye District,46.7421,6.8498
1528,Surpierre,Canton de Fribourg,FR,Broye District,46.7421,6.8498
1528,Praratoud,Canton de Fribourg,FR,Broye District,46.7353,6.8489
1529,Cheiry,Canton de Fribourg,FR,Broye District,46.7504,6.8355
1532,Fétigny,Canton de Fribourg,FR,Broye District,46.7982,6.9117
1533,Ménières,Canton de Fribourg,FR,Broye District,46.7827,6.8801
1534,Chapelle (Broye),Canton de Fribourg,FR,Broye District,46.7714,6.8524
1541,Morens FR,Canton de Fribourg,FR,Broye District,46.8436,6.907
1541,Bussy FR,Canton de Fribourg,FR,Broye District,46.8354,6.8886
1541,Sévaz,Canton de Fribourg,FR,Broye District,46.8398,6.877
1542,Rueyres-les-Prés,Canton de Fribourg,FR,Broye District,46.857,6.9111
1544,Gletterens,Canton de Fribourg,FR,Broye District,46.8949,6.9369
1563,Dompierre FR,Canton de Fribourg,FR,Broye District,46.8521,6.9907
1564,Domdidier,Canton de Fribourg,FR,Broye District,46.8672,7.0134
1565,Vallon,Canton de Fribourg,FR,Broye District,46.8838,6.9554
1566,Les Friques,Canton de Fribourg,FR,Broye District,46.9043,6.9872
1566,St-Aubin FR,Canton de Fribourg,FR,Broye District,46.89,6.9805
1567,Delley,Canton de Fribourg,FR,Broye District,46.9198,6.9577
1568,Portalban,Canton de Fribourg,FR,Broye District,46.9189,6.9563
1773,Russy,Canton de Fribourg,FR,Broye District,46.8413,7.0035
1773,Chandon,Canton de Fribourg,FR,Broye District,46.8405,7.0489
1773,Léchelles,Canton de Fribourg,FR,Broye District,46.829,7.0162
1774,Montagny-les-Monts,Canton de Fribourg,FR,Broye District,46.8107,6.9915
1774,Cousset,Canton de Fribourg,FR,Broye District,46.8192,6.9793
1774,Cousset,Canton de Fribourg,FR,Broye District,46.8192,6.9793
1775,Mannens,Canton de Fribourg,FR,Broye District,46.7937,6.9689
1775,Grandsivaz,Canton de Fribourg,FR,Broye District,46.785,6.9808
1776,Montagny-la-Ville,Canton de Fribourg,FR,Broye District,46.8175,6.9957
1553,Châtonnaye,Canton de Fribourg,FR,Glâne District,46.7545,6.938
1608,Chapelle (Glâne),Canton de Fribourg,FR,Glâne District,46.5887,6.8372
1670,Esmonts,Canton de Fribourg,FR,Glâne District,46.6432,6.8451
1670,Ursy,Canton de Fribourg,FR,Glâne District,46.6335,6.8371
1670,Bionnens,Canton de Fribourg,FR,Glâne District,46.6351,6.8555
1673,Rue,Canton de Fribourg,FR,Glâne District,46.6192,6.8223
1673,Promasens,Canton de Fribourg,FR,Glâne District,46.6028,6.8238
1673,Auboranges,Canton de Fribourg,FR,Glâne District,46.5846,6.8045
1673,Gillarens,Canton de Fribourg,FR,Glâne District,46.5889,6.8281
1673,Ecublens FR,Canton de Fribourg,FR,Glâne District,46.6074,6.8089
1674,Morlens,Canton de Fribourg,FR,Glâne District,46.6542,6.8374
1674,Vuarmarens,Canton de Fribourg,FR,Glâne District,46.6478,6.8287
1674,Montet (Glâne),Canton de Fribourg,FR,Glâne District,46.6413,6.813
1675,Blessens,Canton de Fribourg,FR,Glâne District,46.612,6.8388
1675,Vauderens,Canton de Fribourg,FR,Glâne District,46.6228,6.8507
1675,Mossel,Canton de Fribourg,FR,Glâne District,46.6086,6.8516
1676,Chavannes-les-Forts,Canton de Fribourg,FR,Glâne District,46.653,6.8985
1677,Prez-vers-Siviriez,Canton de Fribourg,FR,Glâne District,46.6397,6.8748
1678,Siviriez,Canton de Fribourg,FR,Glâne District,46.6585,6.8777
1679,Villaraboud,Canton de Fribourg,FR,Glâne District,46.6607,6.9135
1680,Berlens,Canton de Fribourg,FR,Glâne District,46.6959,6.9541
1680,Romont FR,Canton de Fribourg,FR,Glâne District,46.6965,6.919
1681,Billens,Canton de Fribourg,FR,Glâne District,46.6922,6.9008
1681,Hennens,Canton de Fribourg,FR,Glâne District,46.6837,6.8864
1684,Mézières FR,Canton de Fribourg,FR,Glâne District,46.6796,6.9263
1685,Villariaz,Canton de Fribourg,FR,Glâne District,46.6662,6.9409
1686,La Neirigue,Canton de Fribourg,FR,Glâne District,46.683,6.9525
1686,Grangettes-près-Romont,Canton de Fribourg,FR,Glâne District,46.6717,6.9753
1687,Estévenens,Canton de Fribourg,FR,Glâne District,46.6703,6.9551
1687,Vuisternens-devant-Romont,Canton de Fribourg,FR,Glâne District,46.6478,6.9411
1687,La Magne,Canton de Fribourg,FR,Glâne District,46.6347,6.9323
1688,Sommentier,Canton de Fribourg,FR,Glâne District,46.6397,6.9131
1688,Lieffrens,Canton de Fribourg,FR,Glâne District,46.638,6.9017
1689,Le Châtelard-près-Romont,Canton de Fribourg,FR,Glâne District,46.6804,6.9792
1690,Villaz-St-Pierre,Canton de Fribourg,FR,Glâne District,46.7207,6.9564
1690,Lussy FR,Canton de Fribourg,FR,Glâne District,46.7173,6.948
1691,Villarimboud,Canton de Fribourg,FR,Glâne District,46.7417,6.9652
1692,Massonnens,Canton de Fribourg,FR,Glâne District,46.6966,6.9762
1694,Orsonnens,Canton de Fribourg,FR,Glâne District,46.7157,6.995
1694,Villarsiviriaux,Canton de Fribourg,FR,Glâne District,46.6994,7.0103
1694,Villargiroud,Canton de Fribourg,FR,Glâne District,46.7055,7.0022
1694,Chavannes-sous-Orsonnens,Canton de Fribourg,FR,Glâne District,46.7273,6.9917
1697,La Joux FR,Canton de Fribourg,FR,Glâne District,46.6306,6.9401
1697,Les Ecasseys,Canton de Fribourg,FR,Glâne District,46.623,6.9108
1748,Torny-le-Grand,Canton de Fribourg,FR,Glâne District,46.772,6.9667
1749,Middes,Canton de Fribourg,FR,Glâne District,46.7692,6.9502
1625,Maules,Canton de Fribourg,FR,Gruyère District,46.64,6.9921
1625,Sâles (Gruyère),Canton de Fribourg,FR,Gruyère District,46.6347,6.9734
1626,Treyfayes,Canton de Fribourg,FR,Gruyère District,46.6541,6.9533
1626,Romanens,Canton de Fribourg,FR,Gruyère District,46.652,6.9714
1626,Rueyres-Treyfayes,Canton de Fribourg,FR,Gruyère District,46.653,6.9623
1627,Vaulruz,Canton de Fribourg,FR,Gruyère District,46.6216,6.9882
1628,Vuadens,Canton de Fribourg,FR,Gruyère District,46.6155,7.0173
1630,Bulle,Canton de Fribourg,FR,Gruyère District,46.618,7.0569
1632,Riaz,Canton de Fribourg,FR,Gruyère District,46.6422,7.0618
1633,Marsens,Canton de Fribourg,FR,Gruyère District,46.6564,7.0595
1633,Vuippens,Canton de Fribourg,FR,Gruyère District,46.66,7.0746
1634,La Roche FR,Canton de Fribourg,FR,Gruyère District,46.6962,7.1372
1635,La Tour-de-Trême,Canton de Fribourg,FR,Gruyère District,46.6106,7.065
1636,Broc,Canton de Fribourg,FR,Gruyère District,46.6051,7.0989
1637,Charmey (Gruyère),Canton de Fribourg,FR,Gruyère District,46.6196,7.1649
1638,Morlon,Canton de Fribourg,FR,Gruyère District,46.6256,7.0838
1642,Sorens,Canton de Fribourg,FR,Gruyère District,46.6691,7.0525
1643,Gumefens,Canton de Fribourg,FR,Gruyère District,46.6779,7.0766
1644,Avry-devant-Pont,Canton de Fribourg,FR,Gruyère District,46.6871,7.0876
1645,Le Bry,Canton de Fribourg,FR,Gruyère District,46.7046,7.0825
1646,Echarlens,Canton de Fribourg,FR,Gruyère District,46.6478,7.0742
1647,Corbières,Canton de Fribourg,FR,Gruyère District,46.6595,7.101
1648,Hauteville,Canton de Fribourg,FR,Gruyère District,46.6701,7.1104
1649,Pont-la-Ville,Canton de Fribourg,FR,Gruyère District,46.7,7.1
1651,Villarvolard,Canton de Fribourg,FR,Gruyère District,46.6453,7.1074
1652,Botterens,Canton de Fribourg,FR,Gruyère District,46.616,7.1117
1652,Villarbeney,Canton de Fribourg,FR,Gruyère District,46.6302,7.1095
1653,Châtel-sur-Montsalvens,Canton de Fribourg,FR,Gruyère District,46.6165,7.1327
1653,Crésuz,Canton de Fribourg,FR,Gruyère District,46.6206,7.1426
1654,Cerniat FR,Canton de Fribourg,FR,Gruyère District,46.6333,7.1573
1656,Jaun,Canton de Fribourg,FR,Gruyère District,46.6113,7.2759
1656,Im Fang,Canton de Fribourg,FR,Gruyère District,46.5988,7.2362
1661,Le Pâquier-Montbarry,Canton de Fribourg,FR,Gruyère District,46.5948,7.0533
1663,Pringy,Canton de Fribourg,FR,Gruyère District,46.5823,7.0733
1663,Epagny,Canton de Fribourg,FR,Gruyère District,46.5896,7.0856
1663,Gruyères,Canton de Fribourg,FR,Gruyère District,46.5834,7.0821
1663,Moléson-sur-Gruyères,Canton de Fribourg,FR,Gruyère District,46.5851,7.0803
1665,Estavannens,Canton de Fribourg,FR,Gruyère District,46.5605,7.1019
1666,Grandvillard,Canton de Fribourg,FR,Gruyère District,46.539,7.0857
1666,Villars-sous-Mont,Canton de Fribourg,FR,Gruyère District,46.5412,7.0704
1667,Enney,Canton de Fribourg,FR,Gruyère District,46.5667,7.0842
1669,Neirivue,Canton de Fribourg,FR,Gruyère District,46.525,7.0582
1669,Albeuve,Canton de Fribourg,FR,Gruyère District,46.5173,7.0567
1669,Lessoc,Canton de Fribourg,FR,Gruyère District,46.5048,7.0621
1669,Montbovon,Canton de Fribourg,FR,Gruyère District,46.4882,7.0437
1669,Les Sciernes-d'Albeuve,Canton de Fribourg,FR,Gruyère District,46.4958,7.0337
1695,Villarlod,Canton de Fribourg,FR,Sarine District,46.7066,7.0218
1695,Estavayer-le-Gibloux,Canton de Fribourg,FR,Sarine District,46.7241,7.0263
1695,Villarsel-le-Gibloux,Canton de Fribourg,FR,Sarine District,46.713,7.0177
1695,Rueyres-St-Laurent,Canton de Fribourg,FR,Sarine District,46.7129,7.0361
1696,Vuisternens-en-Ogoz,Canton de Fribourg,FR,Sarine District,46.7081,7.054
1700,Fribourg,Canton de Fribourg,FR,Sarine District,46.8024,7.1513
1720,Corminboeuf,Canton de Fribourg,FR,Sarine District,46.8103,7.1054
1720,Chésopelloz,Canton de Fribourg,FR,Sarine District,46.8022,7.0963
1722,Bourguillon,Canton de Fribourg,FR,Sarine District,46.8013,7.1777
1723,Pierrafortscha,Canton de Fribourg,FR,Sarine District,46.7748,7.1858
1723,Marly,Canton de Fribourg,FR,Sarine District,46.7761,7.1646
1723,Villarsel-sur-Marly,Canton de Fribourg,FR,Sarine District,46.7618,7.172
1724,Bonnefontaine,Canton de Fribourg,FR,Sarine District,46.7414,7.2011
1724,Zénauva,Canton de Fribourg,FR,Sarine District,46.735,7.182
1724,Essert FR,Canton de Fribourg,FR,Sarine District,46.7392,7.1645
1724,Le Mouret,Canton de Fribourg,FR,Sarine District,46.7318,7.1875
1724,Senèdes,Canton de Fribourg,FR,Sarine District,46.7418,7.1419
1724,Oberried FR,Canton de Fribourg,FR,Sarine District,46.7381,7.1867
1724,Montévraz,Canton de Fribourg,FR,Sarine District,46.7263,7.1759
1724,Ferpicloz,Canton de Fribourg,FR,Sarine District,46.7482,7.1622
1725,Posieux,Canton de Fribourg,FR,Sarine District,46.7623,7.0971
1726,Posat,Canton de Fribourg,FR,Sarine District,46.7389,7.0584
1726,Grenilles,Canton de Fribourg,FR,Sarine District,46.7285,7.0503
1726,Farvagny-le-Petit,Canton de Fribourg,FR,Sarine District,46.7287,7.0727
1726,Farvagny,Canton de Fribourg,FR,Sarine District,46.7277,7.0663
1727,Corpataux,Canton de Fribourg,FR,Sarine District,46.7433,7.0971
1727,Magnedens,Canton de Fribourg,FR,Sarine District,46.7435,7.0823
1728,Rossens FR,Canton de Fribourg,FR,Sarine District,46.7201,7.1034
1730,Ecuvillens,Canton de Fribourg,FR,Sarine District,46.7578,7.0828
1731,Ependes FR,Canton de Fribourg,FR,Sarine District,46.7537,7.1461
1732,Arconciel,Canton de Fribourg,FR,Sarine District,46.7473,7.1215
1733,Treyvaux,Canton de Fribourg,FR,Sarine District,46.728,7.1377
1740,Neyruz FR,Canton de Fribourg,FR,Sarine District,46.7681,7.0669
1741,Cottens FR,Canton de Fribourg,FR,Sarine District,46.7522,7.0313
1742,Autigny,Canton de Fribourg,FR,Sarine District,46.7366,7.02
1744,Chénens,Canton de Fribourg,FR,Sarine District,46.7416,7.004
1745,Lentigny,Canton de Fribourg,FR,Sarine District,46.7611,7.0029
1746,Prez-vers-Noréaz,Canton de Fribourg,FR,Sarine District,46.7854,7.0158
1747,Corserey,Canton de Fribourg,FR,Sarine District,46.7731,6.9887
1752,Villars-sur-Glâne,Canton de Fribourg,FR,Sarine District,46.7905,7.1172
1753,Matran,Canton de Fribourg,FR,Sarine District,46.7859,7.0977
1754,Avry-sur-Matran,Canton de Fribourg,FR,Sarine District,46.7875,7.0673
1754,Corjolens,Canton de Fribourg,FR,Sarine District,46.7869,7.0465
1754,Rosé,Canton de Fribourg,FR,Sarine District,46.784,7.0629
1756,Onnens FR,Canton de Fribourg,FR,Sarine District,46.7747,7.0371
1756,Lovens,Canton de Fribourg,FR,Sarine District,46.7741,7.0211
1757,Noréaz,Canton de Fribourg,FR,Sarine District,46.8015,7.0278
1762,Givisiez,Canton de Fribourg,FR,Sarine District,46.812,7.1264
1763,Granges-Paccot,Canton de Fribourg,FR,Sarine District,46.8267,7.1425
1772,Grolley,Canton de Fribourg,FR,Sarine District,46.8336,7.0712
1772,Ponthaux,Canton de Fribourg,FR,Sarine District,46.8153,7.0414
1772,Nierlet-les-Bois,Canton de Fribourg,FR,Sarine District,46.8213,7.0585
1782,La Corbaz,Canton de Fribourg,FR,Sarine District,46.8404,7.1159
1782,Cormagens,Canton de Fribourg,FR,Sarine District,46.8359,7.1359
1782,Belfaux,Canton de Fribourg,FR,Sarine District,46.8217,7.1067
1782,Lossy,Canton de Fribourg,FR,Sarine District,46.8351,7.1095
1782,Autafond,Canton de Fribourg,FR,Sarine District,46.8288,7.095
1782,Formangueires,Canton de Fribourg,FR,Sarine District,46.8272,7.1166
1583,Villarepos,Canton de Fribourg,FR,Lake District,46.8643,7.1264
1721,Misery,Canton de Fribourg,FR,Lake District,46.8524,7.0639
1721,Cournillens,Canton de Fribourg,FR,Lake District,46.8587,7.1026
1721,Cormérod,Canton de Fribourg,FR,Lake District,46.8671,7.0896
1721,Courtion,Canton de Fribourg,FR,Lake District,46.8572,7.0689
1783,Barberêche,Canton de Fribourg,FR,Lake District,46.8643,7.1264
1783,Pensier,Canton de Fribourg,FR,Lake District,46.8643,7.1264
1784,Courtepin,Canton de Fribourg,FR,Lake District,46.8655,7.1231
1784,Wallenried,Canton de Fribourg,FR,Lake District,46.8643,7.1264
1785,Cressier FR,Canton de Fribourg,FR,Lake District,46.8979,7.1407
1786,Sugiez,Canton de Fribourg,FR,Lake District,46.9619,7.1129
1787,Mur (Vully) FR,Canton de Fribourg,FR,Lake District,46.9461,7.0644
1787,Môtier (Vully),Canton de Fribourg,FR,Lake District,46.9495,7.084
1788,Praz (Vully),Canton de Fribourg,FR,Lake District,46.9531,7.098
1789,Lugnorre,Canton de Fribourg,FR,Lake District,46.951,7.0749
1791,Courtaman,Canton de Fribourg,FR,Lake District,46.8734,7.1316
1792,Guschelmuth,Canton de Fribourg,FR,Lake District,46.8866,7.1433
1792,Cordast,Canton de Fribourg,FR,Lake District,46.876,7.1521
1793,Jeuss,Canton de Fribourg,FR,Lake District,46.9365,7.1412
1794,Salvenach,Canton de Fribourg,FR,Lake District,46.9365,7.1412
1795,Courlevon,Canton de Fribourg,FR,Lake District,46.9365,7.1412
1796,Courgevaux,Canton de Fribourg,FR,Lake District,46.9065,7.1121
3206,Wallenbuch,Canton de Fribourg,FR,Lake District,46.9295,7.2254
3210,Kerzers,Canton de Fribourg,FR,Lake District,46.9759,7.1957
3212,Gurmels,Canton de Fribourg,FR,Lake District,46.8941,7.1719
3212,Kleingurmels,Canton de Fribourg,FR,Lake District,46.8862,7.1874
3213,Liebistorf,Canton de Fribourg,FR,Lake District,46.9088,7.1964
3213,Kleinbösingen,Canton de Fribourg,FR,Lake District,46.893,7.2024
3214,Ulmiz,Canton de Fribourg,FR,Lake District,46.9319,7.1978
3215,Gempenach,Canton de Fribourg,FR,Lake District,46.943,7.1992
3215,Büchslen,Canton de Fribourg,FR,Lake District,46.9459,7.1816
3215,Lurtigen,Canton de Fribourg,FR,Lake District,46.9284,7.1733
3216,Agriswil,Canton de Fribourg,FR,Lake District,46.9555,7.1978
3216,Ried b. Kerzers,Canton de Fribourg,FR,Lake District,46.9555,7.1978
3280,Meyriez,Canton de Fribourg,FR,Lake District,46.9237,7.1066
3280,Murten,Canton de Fribourg,FR,Lake District,46.9283,7.1171
3280,Greng,Canton de Fribourg,FR,Lake District,46.9134,7.094
3284,Fräschels,Canton de Fribourg,FR,Lake District,46.9979,7.2081
3285,Galmiz,Canton de Fribourg,FR,Lake District,46.9488,7.158
3286,Muntelier,Canton de Fribourg,FR,Lake District,46.9352,7.1236
1712,Tafers,Canton de Fribourg,FR,Sense District,46.8148,7.2185
1713,St. Antoni,Canton de Fribourg,FR,Sense District,46.8221,7.2609
1714,Heitenried,Canton de Fribourg,FR,Sense District,46.8276,7.2994
1715,Alterswil FR,Canton de Fribourg,FR,Sense District,46.7959,7.2588
1716,Oberschrot,Canton de Fribourg,FR,Sense District,46.7413,7.2815
1716,Schwarzsee,Canton de Fribourg,FR,Sense District,46.671,7.2818
1716,Plaffeien,Canton de Fribourg,FR,Sense District,46.742,7.2867
1717,St. Ursen,Canton de Fribourg,FR,Sense District,46.7869,7.2243
1718,Rechthalten,Canton de Fribourg,FR,Sense District,46.7677,7.2403
1719,Brünisried,Canton de Fribourg,FR,Sense District,46.7578,7.2785
1719,Zumholz,Canton de Fribourg,FR,Sense District,46.6871,7.3155
1734,Tentlingen,Canton de Fribourg,FR,Sense District,46.7692,7.1977
1735,Giffers,Canton de Fribourg,FR,Sense District,46.7623,7.2085
1736,St. Silvester,Canton de Fribourg,FR,Sense District,46.7425,7.224
1737,Plasselb,Canton de Fribourg,FR,Sense District,46.7349,7.2512
3175,Flamatt,Canton de Fribourg,FR,Sense District,46.8899,7.322
3178,Bösingen,Canton de Fribourg,FR,Sense District,46.8923,7.2277
3182,Ueberstorf,Canton de Fribourg,FR,Sense District,46.8659,7.31
3184,Wünnewil,Canton de Fribourg,FR,Sense District,46.874,7.2773
3185,Schmitten FR,Canton de Fribourg,FR,Sense District,46.8575,7.2503
3186,Düdingen,Canton de Fribourg,FR,Sense District,46.8492,7.1885
1609,Fiaugères,Canton de Fribourg,FR,Veveyse District,46.5873,6.8927
1609,Besencens,Canton de Fribourg,FR,Veveyse District,46.5875,6.8687
1609,St-Martin FR,Canton de Fribourg,FR,Veveyse District,46.5763,6.8698
1609,Fiaugères,Canton de Fribourg,FR,Veveyse District,46.5873,6.8927
1611,Le Crêt-près-Semsales,Canton de Fribourg,FR,Veveyse District,46.609,6.9097
1614,Granges (Veveyse),Canton de Fribourg,FR,Veveyse District,46.5261,6.83
1615,Bossonnens,Canton de Fribourg,FR,Veveyse District,46.5285,6.8525
1616,Attalens,Canton de Fribourg,FR,Veveyse District,46.5056,6.8504
1617,Tatroz,Canton de Fribourg,FR,Veveyse District,46.527,6.8669
1617,Remaufens,Canton de Fribourg,FR,Veveyse District,46.5287,6.8826
1618,Châtel-St-Denis,Canton de Fribourg,FR,Veveyse District,46.5269,6.9008
1619,Les Paccots,Canton de Fribourg,FR,Veveyse District,46.5241,6.9463
1623,Semsales,Canton de Fribourg,FR,Veveyse District,46.5732,6.9295
1624,La Verrerie,Canton de Fribourg,FR,Veveyse District,46.5995,6.9203
1624,Progens,Canton de Fribourg,FR,Veveyse District,46.5848,6.9111
1624,Grattavache,Canton de Fribourg,FR,Veveyse District,46.596,6.9134
1624,Progens,Canton de Fribourg,FR,Veveyse District,46.5699,6.9557
1699,Porsel,Canton de Fribourg,FR,Veveyse District,46.6015,6.8658
1699,Bouloz,Canton de Fribourg,FR,Veveyse District,46.6124,6.8827
1699,Pont (Veveyse),Canton de Fribourg,FR,Veveyse District,46.5885,6.8513
1699,Porsel,Canton de Fribourg,FR,Veveyse District,46.6015,6.8658
1200,Genève,Genève,GE,Geneva,46.2058,6.1416
1201,Genève,Genève,GE,Geneva,46.2022,6.1457
1202,Genève,Genève,GE,Geneva,46.2022,6.1457
1203,Genève,Genève,GE,Geneva,46.2022,6.1457
1204,Genève,Genève,GE,Geneva,46.2022,6.1457
1205,Genève,Genève,GE,Geneva,46.2022,6.1457
1206,Genève,Genève,GE,Geneva,46.2022,6.1457
1207,Genève,Genève,GE,Geneva,46.2022,6.1457
1208,Genève,Genève,GE,Geneva,46.2022,6.1457
1209,Genève,Genève,GE,Geneva,46.2022,6.1457
1211,Genève 73,Genève,GE,Geneva,46.2058,6.1416
1211,Genève 70,Genève,GE,Geneva,46.2058,6.1416
1211,Genève 84 Votation,Genève,GE,Geneva,46.2058,6.1416
1211,Genève 71 CS CP,Genève,GE,Geneva,46.2058,6.1416
1211,Genève 3,Genève,GE,Geneva,46.2058,6.1416
1211,Genève 14,Genève,GE,Geneva,46.2058,6.1416
1211,Genève 23,Genève,GE,Geneva,46.2322,6.0791
1211,Genève 5,Genève,GE,Geneva,46.2358,6.1192
1211,Genève 28,Genève,GE,Geneva,46.2058,6.1416
1211,Genève 12,Genève,GE,Geneva,46.2058,6.1416
1211,Genève 10,Genève,GE,Geneva,46.2058,6.1416
1211,Genève 8,Genève,GE,Geneva,46.2058,6.1416
1211,Genève 4,Genève,GE,Geneva,46.2058,6.1416
1211,Genève 13,Genève,GE,Geneva,46.2058,6.1416
1211,Genève 6,Genève,GE,Geneva,46.2058,6.1416
1211,Genève 1,Genève,GE,Geneva,46.2058,6.1416
1211,Genève 22,Genève,GE,Geneva,46.2058,6.1416
1211,Genève 2,Genève,GE,Geneva,46.2058,6.1416
1211,Genève 27,Genève,GE,Geneva,46.2379,6.1424
1211,Genève 26,Genève,GE,Geneva,46.1897,6.1158
1211,Genève 20,Genève,GE,Geneva,46.2058,6.1416
1211,Genève 19,Genève,GE,Geneva,46.2058,6.1416
1211,Genève 11,Genève,GE,Geneva,46.2058,6.1416
1212,Grand-Lancy,Genève,GE,Geneva,46.1788,6.1229
1213,Petit-Lancy,Genève,GE,Geneva,46.1965,6.1136
1213,Onex,Genève,GE,Geneva,46.184,6.1024
1214,Vernier,Genève,GE,Geneva,46.217,6.085
1215,Genève,Genève,GE,Geneva,46.2358,6.1192
1216,Cointrin,Genève,GE,Geneva,46.2267,6.1055
1217,Meyrin,Genève,GE,Geneva,46.2342,6.0802
1218,Le Grand-Saconnex,Genève,GE,Geneva,46.2319,6.1209
1219,Châtelaine,Genève,GE,Geneva,46.2114,6.1089
1219,Le Lignon,Genève,GE,Geneva,46.2074,6.0984
1219,Aïre,Genève,GE,Geneva,46.1951,6.0995
1220,Les Avanchets,Genève,GE,Geneva,46.2217,6.1081
1222,Vésenaz,Genève,GE,Geneva,46.2403,6.1975
1223,Cologny,Genève,GE,Geneva,46.2167,6.1804
1224,Chêne-Bougeries,Genève,GE,Geneva,46.1984,6.1864
1225,Chêne-Bourg,Genève,GE,Geneva,46.1953,6.1941
1226,Thônex,Genève,GE,Geneva,46.1881,6.199
1227,Les Acacias,Genève,GE,Geneva,46.1917,6.1361
1227,Carouge GE,Genève,GE,Geneva,46.1917,6.1361
1228,Plan-les-Ouates,Genève,GE,Geneva,46.1679,6.1166
1231,Conches,Genève,GE,Geneva,46.185,6.1739
1232,Confignon,Genève,GE,Geneva,46.1734,6.0844
1233,Bernex,Genève,GE,Geneva,46.1765,6.0754
1234,Vessy,Genève,GE,Geneva,46.1831,6.1668
1236,Cartigny,Genève,GE,Geneva,46.1741,6.0198
1237,Avully,Genève,GE,Geneva,46.1701,6.0046
1239,Collex,Genève,GE,Geneva,46.2715,6.1233
1240,Genève,Genève,GE,Geneva,46.2058,6.1416
1241,Puplinge,Genève,GE,Geneva,46.2104,6.2311
1242,Satigny,Genève,GE,Geneva,46.2146,6.0355
1243,Presinge,Genève,GE,Geneva,46.2198,6.2552
1244,Choulex,Genève,GE,Geneva,46.2263,6.2238
1245,Collonge-Bellerive,Genève,GE,Geneva,46.2504,6.1959
1246,Corsier GE,Genève,GE,Geneva,46.263,6.2246
1247,Anières,Genève,GE,Geneva,46.2767,6.222
1248,Hermance,Genève,GE,Geneva,46.3014,6.2433
1251,Gy,Genève,GE,Geneva,46.2532,6.2591
1252,Meinier,Genève,GE,Geneva,46.2471,6.2342
1253,Vandoeuvres,Genève,GE,Geneva,46.2218,6.2029
1254,Jussy,Genève,GE,Geneva,46.2359,6.267
1255,Veyrier,Genève,GE,Geneva,46.167,6.1844
1256,Troinex,Genève,GE,Geneva,46.1631,6.1475
1257,La Croix-de-Rozon,Genève,GE,Geneva,46.1454,6.1364
1258,Perly,Genève,GE,Geneva,46.157,6.0923
1281,Russin,Genève,GE,Geneva,46.187,6.0138
1283,La Plaine,Genève,GE,Geneva,46.1773,6.0011
1283,Dardagny,Genève,GE,Geneva,46.1956,5.995
1284,Chancy,Genève,GE,Geneva,46.15,5.9715
1285,Athenaz (Avusy),Genève,GE,Geneva,46.1518,6.0021
1286,Soral,Genève,GE,Geneva,46.1437,6.0428
1287,Laconnex,Genève,GE,Geneva,46.157,6.0313
1288,Aire-la-Ville,Genève,GE,Geneva,46.1906,6.0429
1290,Versoix,Genève,GE,Geneva,46.2838,6.1621
1292,Chambésy,Genève,GE,Geneva,46.2441,6.1444
1293,Bellevue,Genève,GE,Geneva,46.2574,6.1547
1294,Genthod,Genève,GE,Geneva,46.2672,6.1556
1298,Céligny,Genève,GE,Geneva,46.3507,6.195
1298,Céligny,Genève,GE,Geneva,46.3507,6.195
8750,Glarus,Kanton Glarus,GL,Glarus,47.0406,9.068
8750,Riedern,Kanton Glarus,GL,Glarus,47.0254,9.0055
8750,Klöntal,Kanton Glarus,GL,Glarus,47.0262,8.9419
8752,Näfels,Kanton Glarus,GL,Glarus,47.0978,9.0636
8753,Mollis,Kanton Glarus,GL,Glarus,47.0888,9.0724
8754,Netstal,Kanton Glarus,GL,Glarus,47.0634,9.0573
8755,Ennenda,Kanton Glarus,GL,Glarus,47.0336,9.0789
8756,Mitlödi,Kanton Glarus,GL,Glarus,47.0123,9.0802
8757,Filzbach,Kanton Glarus,GL,Glarus,47.119,9.1324
8758,Obstalden,Kanton Glarus,GL,Glarus,47.1173,9.1487
8759,Netstal,Kanton Glarus,GL,Glarus,47.021,8.979
8762,Schwanden GL,Kanton Glarus,GL,Glarus,46.9954,9.0701
8762,Sool,Kanton Glarus,GL,Glarus,47.0007,9.086
8762,Schwändi b. Schwanden,Kanton Glarus,GL,Glarus,46.9981,9.0781
8765,Engi,Kanton Glarus,GL,Glarus,46.9824,9.1531
8766,Matt,Kanton Glarus,GL,Glarus,46.9595,9.1712
8767,Elm,Kanton Glarus,GL,Glarus,46.919,9.1724
8772,Nidfurn,Kanton Glarus,GL,Glarus,46.9867,9.0547
8773,Haslen GL,Kanton Glarus,GL,Glarus,46.9815,9.058
8774,Leuggelbach,Kanton Glarus,GL,Glarus,46.9763,9.0459
8775,Hätzingen,Kanton Glarus,GL,Glarus,46.9664,9.0371
8775,Luchsingen,Kanton Glarus,GL,Glarus,46.9664,9.0371
8777,Betschwanden,Kanton Glarus,GL,Glarus,46.9463,9.0276
8777,Diesbach GL,Kanton Glarus,GL,Glarus,46.9491,9.0309
8782,Rüti GL,Kanton Glarus,GL,Glarus,46.9378,9.0169
8783,Linthal,Kanton Glarus,GL,Glarus,46.9213,8.998
8784,Braunwald,Kanton Glarus,GL,Glarus,46.9416,8.9964
8865,Bilten,Kanton Glarus,GL,Glarus,47.15,9.0255
8867,Niederurnen,Kanton Glarus,GL,Glarus,47.126,9.0543
8868,Oberurnen,Kanton Glarus,GL,Glarus,47.1141,9.0587
8874,Mühlehorn,Kanton Glarus,GL,Glarus,47.1176,9.1724
7077,Valbella,Kanton Graubünden,GR,Region Albula,46.7473,9.5542
7078,Lenzerheide/Lai,Kanton Graubünden,GR,Region Albula,46.7222,9.559
7082,Vaz/Obervaz,Kanton Graubünden,GR,Region Albula,46.717,9.5413
7083,Lantsch/Lenz,Kanton Graubünden,GR,Region Albula,46.6841,9.5627
7084,Brienz/Brinzauls GR,Kanton Graubünden,GR,Region Albula,46.6683,9.5951
7450,Tiefencastel,Kanton Graubünden,GR,Region Albula,46.7257,9.5415
7450,Tiefencastel,Kanton Graubünden,GR,Region Albula,46.6601,9.5788
7451,Alvaschein,Kanton Graubünden,GR,Region Albula,46.6753,9.5506
7452,Cunter,Kanton Graubünden,GR,Region Albula,46.6096,9.5898
7453,Tinizong,Kanton Graubünden,GR,Region Albula,46.5824,9.6173
7454,Rona,Kanton Graubünden,GR,Region Albula,46.5613,9.6253
7455,Mulegns,Kanton Graubünden,GR,Region Albula,46.5242,9.6209
7456,Marmorera,Kanton Graubünden,GR,Region Albula,46.4972,9.6435
7456,Sur,Kanton Graubünden,GR,Region Albula,46.5703,9.3659
7457,Bivio,Kanton Graubünden,GR,Region Albula,46.4685,9.6509
7458,Mon,Kanton Graubünden,GR,Region Albula,46.6498,9.5647
7459,Stierva,Kanton Graubünden,GR,Region Albula,46.6637,9.5423
7460,Savognin,Kanton Graubünden,GR,Region Albula,46.5973,9.5982
